,id,name,timezone,label,lat,lon,insee,region,label_region,id_region,zip_code
0,stop_area:SNCF:87182915,,Europe/Paris,,0,0,,,,,
1,stop_area:SNCF:80153452,Aachen Hauptbahnhof,Europe/Paris,Aachen Hauptbahnhof (Aachen),50.7675,6.0912,,Aachen,Aachen,admin:osm:relation:62564,
2,stop_area:SNCF:87313759,Abancourt,Europe/Paris,Abancourt (Abancourt),49.685621,1.774297,60001,Abancourt,Abancourt (60220),admin:fr:60001,60220
3,stop_area:SNCF:87481614,Abbaretz,Europe/Paris,Abbaretz (Abbaretz),47.555241,-1.524289,44001,Abbaretz,Abbaretz (44170),admin:fr:44001,44170
4,stop_area:SNCF:87317362,Abbeville,Europe/Paris,Abbeville (Abbeville),50.102175,1.824538,80001,Abbeville,Abbeville (80100),admin:fr:80001,80100
5,stop_area:SNCF:87545269,Ablon,Europe/Paris,Ablon (Ablon-sur-Seine),48.725443,2.419213,94001,Ablon-sur-Seine,Ablon-sur-Seine (94480),admin:fr:94001,94480
6,stop_area:SNCF:87191403,Aboncourt Mairie,Europe/Paris,Aboncourt Mairie (Aboncourt),49.261076,6.346603,57001,Aboncourt,Aboncourt (57920),admin:fr:57001,57920
7,stop_area:SNCF:87677252,Accolay Le Pont,Europe/Paris,Accolay Le Pont (Deux Rivières),47.663798,3.709584,89130,Deux Rivières,Deux Rivières (89460),admin:fr:89130,89460
8,stop_area:SNCF:87386052,Achères Grand Cormier,Europe/Paris,Achères Grand Cormier (Saint-Germain-en-Laye),48.955187,2.091962,78551,Saint-Germain-en-Laye,Saint-Germain-en-Laye (78100-78112),admin:fr:78551,78100;78112
9,stop_area:SNCF:87381657,Achères Ville,Europe/Paris,Achères Ville (Achères),48.97011,2.07739,78005,Achères,Achères (78260),admin:fr:78005,78260
10,stop_area:SNCF:87342048,Achiet,Europe/Paris,Achiet (Achiet-le-Grand),50.131919,2.780112,62005,Achiet-le-Grand,Achiet-le-Grand (62121),admin:fr:62005,62121
11,stop_area:SNCF:87316455,Achy,Europe/Paris,Achy (Achy),49.55473,1.979053,60004,Achy,Achy (60690),admin:fr:60004,60690
12,stop_area:SNCF:87658856,Adamswiller Lotissement la Forêt,Europe/Paris,Adamswiller Lotissement la Forêt (Adamswiller),48.905635,7.208238,67002,Adamswiller,Adamswiller (67320),admin:fr:67002,67320
13,stop_area:SNCF:87658922,Adamswiller Mairie,Europe/Paris,Adamswiller Mairie (Adamswiller),48.903835,7.201179,67002,Adamswiller,Adamswiller (67320),admin:fr:67002,67320
14,stop_area:SNCF:87523548,Aérogare Orly Sud - Noctilien,Europe/Paris,Aérogare Orly Sud - Noctilien (Paray-Vieille-Poste),48.728829,2.369614,91479,Paray-Vieille-Poste,Paray-Vieille-Poste (91550-94390),admin:fr:91479,91550;94390
15,stop_area:SNCF:87001479,Aéroport - Charles-de-Gaulle 2 RER,Europe/Paris,Aéroport - Charles-de-Gaulle 2 RER (Tremblay-en-France),49.003965,2.570665,93073,Tremblay-en-France,Tremblay-en-France (93290),admin:fr:93073,93290
16,stop_area:SNCF:87271494,Aéroport Charles de Gaulle 2 TGV,Europe/Paris,Aéroport Charles de Gaulle 2 TGV (Tremblay-en-France),49.003618,2.570812,93073,Tremblay-en-France,Tremblay-en-France (93290),admin:fr:93073,93290
17,stop_area:SNCF:87271460,Aéroport Roissy Charles de Gaulle 1,Europe/Paris,Aéroport Roissy Charles de Gaulle 1 (Tremblay-en-France),49.00956,2.56135,93073,Tremblay-en-France,Tremblay-en-France (93290),admin:fr:93073,93290
18,stop_area:SNCF:87757559,Agay,Europe/Paris,Agay (Saint-Raphaël),43.43137,6.8565,83118,Saint-Raphaël,Saint-Raphaël (83530-83700),admin:fr:83118,83530;83700
19,stop_area:SNCF:87781278,Agde,Europe/Paris,Agde (Agde),43.31728,3.466203,34003,Agde,Agde (34300),admin:fr:34003,34300
20,stop_area:SNCF:87586008,Agen,Europe/Paris,Agen (Agen),44.207967,0.6208669999999999,47001,Agen,Agen (47000),admin:fr:47001,47000
21,stop_area:SNCF:87595157,Agonac,Europe/Paris,Agonac (Agonac),45.286605,0.748653,24002,Agonac,Agonac (24460),admin:fr:24002,24460
22,stop_area:SNCF:87783399,Aguessac Avenue de Causses,Europe/Paris,Aguessac Avenue de Causses (Aguessac),44.153724,3.097892,12002,Aguessac,Aguessac (12520),admin:fr:12002,12520
23,stop_area:SNCF:87171702,Aguilcourt - Variscourt,Europe/Paris,Aguilcourt - Variscourt (Variscourt),49.407994,3.973095,02761,Variscourt,Variscourt (02190),admin:fr:02761,02190
24,stop_area:SNCF:85014001,Aigle,Europe/Paris,Aigle (Aigle),46.31685,6.96367,,Aigle,Aigle (1860),admin:osm:relation:1684831,1860
0,stop_area:SNCF:87751479,Aiglun,Europe/Paris,Aiglun (Aiglun),44.046839,6.137533,04001,Aiglun,Aiglun (04510),admin:fr:04001,04510
1,stop_area:SNCF:87485193,Aigrefeuille Le Thou,Europe/Paris,Aigrefeuille Le Thou (Le Thou),46.09402,-0.95168,17447,Le Thou,Le Thou (17290),admin:fr:17447,17290
2,stop_area:SNCF:87695957,Aiguebelette - Centre,Europe/Paris,Aiguebelette - Centre (Aiguebelette-le-Lac),45.537542,5.812926,73001,Aiguebelette-le-Lac,Aiguebelette-le-Lac (73610),admin:fr:73001,73610
3,stop_area:SNCF:87741421,Aiguebelette-le-Lac,Europe/Paris,Aiguebelette-le-Lac (Aiguebelette-le-Lac),45.536323,5.813122,73001,Aiguebelette-le-Lac,Aiguebelette-le-Lac (73610),admin:fr:73001,73610
4,stop_area:SNCF:87741256,Aiguebelle,Europe/Paris,Aiguebelle (Val-d'Arc),45.543703,6.306737,73212,Val-d'Arc,Val-d'Arc (73220),admin:fr:73212,73220
5,stop_area:SNCF:87741710,Aigueblanche - Centre,Europe/Paris,Aigueblanche - Centre (Grand-Aigueblanche),45.501835,6.508605,73003,Grand-Aigueblanche,Grand-Aigueblanche (73260),admin:fr:73003,73260
6,stop_area:SNCF:87734129,Aigueperse,Europe/Paris,Aigueperse (Aigueperse),46.014869,3.197912,63001,Aigueperse,Aigueperse (63260),admin:fr:63001,63260
7,stop_area:SNCF:87775858,Aigues-Mortes,Europe/Paris,Aigues-Mortes (Aigues-Mortes),43.570901,4.19121,30003,Aigues-Mortes,Aigues-Mortes (30220),admin:fr:30003,30220
8,stop_area:SNCF:87586693,Aiguillon,Europe/Paris,Aiguillon (Aiguillon),44.298624,0.335543,47004,Aiguillon,Aiguillon (47190),admin:fr:47004,47190
9,stop_area:SNCF:87215624,Ailleville,Europe/Paris,Ailleville (Ailleville),48.254741,4.682252,10002,Ailleville,Ailleville (10200),admin:fr:10002,10200
10,stop_area:SNCF:87185629,Aillevillers,Europe/Paris,Aillevillers (Corbenay),47.91389,6.33736,70171,Corbenay,Corbenay (70320),admin:fr:70171,70320
11,stop_area:SNCF:87313221,Ailly-sur-Noye,Europe/Paris,Ailly-sur-Noye (Ailly-sur-Noye),49.754206,2.364147,80010,Ailly-sur-Noye,Ailly-sur-Noye (80250),admin:fr:80010,80250
12,stop_area:SNCF:87313098,Ailly-sur-Somme,Europe/Paris,Ailly-sur-Somme (Ailly-sur-Somme),49.928515,2.200476,80011,Ailly-sur-Somme,Ailly-sur-Somme (80470),admin:fr:80011,80470
13,stop_area:SNCF:87775833,Aimargues,Europe/Paris,Aimargues (Aimargues),43.678643,4.20845,30006,Aimargues,Aimargues (30470),admin:fr:30006,30470
14,stop_area:SNCF:87741769,Aime - La Plagne,Europe/Paris,Aime - La Plagne (Aime-la-Plagne),45.554387,6.648614,73006,Aime-la-Plagne,Aime-la-Plagne (73210),admin:fr:73006,73210
15,stop_area:SNCF:87713636,Aiserey,Europe/Paris,Aiserey (Aiserey),47.170645,5.158352,21005,Aiserey,Aiserey (21110),admin:fr:21005,21110
16,stop_area:SNCF:87741249,Aiton Salle Polyvalente,Europe/Paris,Aiton Salle Polyvalente (Aiton),45.560231,6.254831,73007,Aiton,Aiton (73220),admin:fr:73007,73220
17,stop_area:SNCF:87751404,Aix-en-Provence,Europe/Paris,Aix-en-Provence (Aix-en-Provence),43.522903,5.44533,13001,Aix-en-Provence,Aix-en-Provence (13080-13540),admin:fr:13001,13080;13540
18,stop_area:SNCF:87541797,Aix-en-Provence - Gare Routière,Europe/Paris,Aix-en-Provence - Gare Routière (Aix-en-Provence),43.523333,5.43997,13001,Aix-en-Provence,Aix-en-Provence (13080-13540),admin:fr:13001,13080;13540
19,stop_area:SNCF:87319012,Aix-en-Provence TGV,Europe/Paris,Aix-en-Provence TGV (Aix-en-Provence),43.455237,5.317534,13001,Aix-en-Provence,Aix-en-Provence (13080-13540),admin:fr:13001,13080;13540
20,stop_area:SNCF:87741132,Aix-les-Bains - Le Revard,Europe/Paris,Aix-les-Bains - Le Revard (Aix-les-Bains),45.688161,5.909371,73008,Aix-les-Bains,Aix-les-Bains (73100),admin:fr:73008,73100
21,stop_area:SNCF:87592667,Aixe-sur-Vienne,Europe/Paris,Aixe-sur-Vienne (Aixe-sur-Vienne),45.796573,1.145724,87001,Aixe-sur-Vienne,Aixe-sur-Vienne (87700),admin:fr:87001,87700
22,stop_area:SNCF:87417808,Ajain,Europe/Paris,Ajain (Ajain),46.207153,1.99724,23002,Ajain,Ajain (23380),admin:fr:23002,23380
23,stop_area:SNCF:87722744,Alaï,Europe/Paris,Alaï (Tassin-la-Demi-Lune),45.752428,4.771695,69244,Tassin-la-Demi-Lune,Tassin-la-Demi-Lune (69160),admin:fr:69244,69160
24,stop_area:SNCF:87698381,Alai - Arrêt TCL,Europe/Paris,Alai - Arrêt TCL (Tassin-la-Demi-Lune),45.751467,4.766994,69244,Tassin-la-Demi-Lune,Tassin-la-Demi-Lune (69160),admin:fr:69244,69160
0,stop_area:SNCF:87420836,Alba-la-Romaine Ruines Romaines,Europe/Paris,Alba-la-Romaine Ruines Romaines (Alba-la-Romaine),44.562774,4.595211,07005,Alba-la-Romaine,Alba-la-Romaine (07400),admin:fr:07005,07400
1,stop_area:SNCF:87746115,Albens,Europe/Paris,Albens (Entrelacs),45.785946,5.948342,73010,Entrelacs,Entrelacs (73410),admin:fr:73010,73410
2,stop_area:SNCF:87313072,Albert,Europe/Paris,Albert (Albert),50.005395,2.644481,80016,Albert,Albert (80300),admin:fr:80016,80300
3,stop_area:SNCF:87741645,Albertville,Europe/Paris,Albertville (Albertville),45.672977,6.383167,73011,Albertville,Albertville (73200),admin:fr:73011,73200
4,stop_area:SNCF:87615195,Albi Madeleine,Europe/Paris,Albi Madeleine (Albi),43.938137,2.141209,81004,Albi,Albi (81000),admin:fr:81004,81000
5,stop_area:SNCF:87615005,Albi Ville,Europe/Paris,Albi Ville (Albi),43.92238,2.137958,81004,Albi,Albi (81000),admin:fr:81004,81000
6,stop_area:SNCF:87139089,Albias,Europe/Paris,Albias (Albias),44.090527,1.44713,82002,Albias,Albias (82350),admin:fr:82002,82350
7,stop_area:SNCF:87613398,Albias,Europe/Paris,Albias (Albias),44.091981,1.444922,82002,Albias,Albias (82350),admin:fr:82002,82350
8,stop_area:SNCF:87721266,Albigny - Neuville,Europe/Paris,Albigny - Neuville (Albigny-sur-Saône),45.874897,4.832852,69003,Albigny-sur-Saône,Albigny-sur-Saône (69250),admin:fr:69003,69250
9,stop_area:SNCF:87697003,Albigny-Neuville - Arrêt TCL Gare,Europe/Paris,Albigny-Neuville - Arrêt TCL Gare (Albigny-sur-Saône),45.875356,4.833042,69003,Albigny-sur-Saône,Albigny-sur-Saône (69250),admin:fr:69003,69250
10,stop_area:SNCF:87444711,Alençon,Europe/Paris,Alençon (Alençon),48.433884,0.09853099999999999,61001,Alençon,Alençon (61000),admin:fr:61001,61000
11,stop_area:SNCF:87775288,Alès,Europe/Paris,Alès (Alès),44.127825,4.084948,30007,Alès,Alès (30100),admin:fr:30007,30100
12,stop_area:SNCF:87615187,Alet-les-Bains,Europe/Paris,Alet-les-Bains (Alet-les-Bains),42.997403,2.252189,11008,Alet-les-Bains,Alet-les-Bains (11580),admin:fr:11008,11580
13,stop_area:SNCF:85010355,Allaman,Europe/Paris,Allaman (Allaman),46.47575,6.3997,,Allaman,Allaman (1165),admin:osm:relation:1684832,1165
14,stop_area:SNCF:87117465,Allamps E.S.A.T,Europe/Paris,Allamps E.S.A.T (Allamps),48.542768,5.796812,54010,Allamps,Allamps (54112),admin:fr:54010,54112
15,stop_area:SNCF:87240242,Allan Menuiserie,Europe/Paris,Allan Menuiserie (Allan),44.50056,4.78688,26005,Allan,Allan (26780),admin:fr:26005,26780
16,stop_area:SNCF:87594234,Allassac,Europe/Paris,Allassac (Allassac),45.258984,1.473316,19005,Allassac,Allassac (19240),admin:fr:19005,19240
17,stop_area:SNCF:87113878,Allée de la Tour-Rendez-vous,Europe/Paris,Allée de la Tour-Rendez-vous (Villemomble),48.897109,2.506475,93077,Villemomble,Villemomble (93250),admin:fr:93077,93250
18,stop_area:SNCF:87710913,Allée Royale  T13,Europe/Paris,Allée Royale  T13 (Saint-Cyr-l'École),48.815443,2.078746,78545,Saint-Cyr-l'École,Saint-Cyr-l'École (78210),admin:fr:78545,78210
19,stop_area:SNCF:87783654,Allenc,Europe/Paris,Allenc (Allenc),44.541296,3.663893,48003,Allenc,Allenc (48190),admin:fr:48003,48190
20,stop_area:SNCF:87769554,Allex,Europe/Paris,Allex (Allex),44.764001,4.913496,26006,Allex,Allex (26400),admin:fr:26006,26400
21,stop_area:SNCF:87731885,Alleyras,Europe/Paris,Alleyras (Alleyras),44.919217,3.673517,43005,Alleyras,Alleyras (43580),admin:fr:43005,43580
22,stop_area:SNCF:87639955,Alteckendorf Altdorf,Europe/Paris,Alteckendorf Altdorf (Alteckendorf),48.794562,7.589267,67005,Alteckendorf,Alteckendorf (67270),admin:fr:67005,67270
23,stop_area:SNCF:87639930,Alteckendorf Eckendorf,Europe/Paris,Alteckendorf Eckendorf (Alteckendorf),48.789785,7.601602,67005,Alteckendorf,Alteckendorf (67270),admin:fr:67005,67270
24,stop_area:SNCF:87639948,Alteckendorf Mairie,Europe/Paris,Alteckendorf Mairie (Alteckendorf),48.792818,7.594688,67005,Alteckendorf,Alteckendorf (67270),admin:fr:67005,67270
0,stop_area:SNCF:87182238,Altkirch,Europe/Paris,Altkirch (Altkirch),47.627017,7.23905,68004,Altkirch,Altkirch (68130),admin:fr:68004,68130
1,stop_area:SNCF:87117515,Alzing Rue de Brettnach,Europe/Paris,Alzing Rue de Brettnach (Alzing),49.278966,6.552207,57016,Alzing,Alzing (57320),admin:fr:57016,57320
2,stop_area:SNCF:87172262,Amagne - Lucquy,Europe/Paris,Amagne - Lucquy (Lucquy),49.52377,4.473898,08262,Lucquy,Lucquy (08300),admin:fr:08262,08300
3,stop_area:SNCF:87727917,Amance la-Ville-au Bois Eglise,Europe/Paris,Amance la-Ville-au Bois Eglise (Amance),48.286223,4.500366,10005,Amance,Amance (10140),admin:fr:10005,10140
4,stop_area:SNCF:87727925,Amance Mairie/Ecole,Europe/Paris,Amance Mairie/Ecole (Amance),48.295107,4.516132,10005,Amance,Amance (10140),admin:fr:10005,10140
5,stop_area:SNCF:87592311,Ambazac,Europe/Paris,Ambazac (Ambazac),45.952901,1.406583,87002,Ambazac,Ambazac (87240),admin:fr:87002,87240
6,stop_area:SNCF:87743716,Ambérieu-en-Bugey,Europe/Paris,Ambérieu-en-Bugey (Ambérieu-en-Bugey),45.954014,5.342402,01004,Ambérieu-en-Bugey,Ambérieu-en-Bugey (01500),admin:fr:01004,01500
7,stop_area:SNCF:87574343,Amboise,Europe/Paris,Amboise (Amboise),47.421469,0.981267,37003,Amboise,Amboise (37400),admin:fr:37003,37400
8,stop_area:SNCF:87743146,Ambronay - Priay,Europe/Paris,Ambronay - Priay (Ambronay),46.011866,5.339141,01007,Ambronay,Ambronay (01500),admin:fr:01007,01500
9,stop_area:SNCF:87695965,Ambronay-Priay - R.D. 1076,Europe/Paris,Ambronay-Priay - R.D. 1076 (Ambronay),46.01159,5.338143,01007,Ambronay,Ambronay (01500),admin:fr:01007,01500
10,stop_area:SNCF:87313874,Amiens,Europe/Paris,Amiens (Amiens),49.890584,2.308277,80021,Amiens,Amiens (80000-80090),admin:fr:80021,80000;80090
11,stop_area:SNCF:87171744,Amifontaine,Europe/Paris,Amifontaine (Amifontaine),49.484738,3.910666,02013,Amifontaine,Amifontaine (02190),admin:fr:02013,02190
12,stop_area:SNCF:87394205,Amilly Ouerray,Europe/Paris,Amilly Ouerray (Amilly),48.438294,1.389396,28006,Amilly,Amilly (28300),admin:fr:28006,28300
13,stop_area:SNCF:87721035,Amplepuis,Europe/Paris,Amplepuis (Amplepuis),45.971014,4.326763,69006,Amplepuis,Amplepuis (69550),admin:fr:69006,69550
14,stop_area:SNCF:84000588,Amsterdam Centraal,Europe/Paris,Amsterdam Centraal (Amsterdam),52.37908,4.900632,,Amsterdam,Amsterdam,admin:osm:relation:271110,
15,stop_area:SNCF:87481192,Ancenis,Europe/Paris,Ancenis (Ancenis-Saint-Géréon),47.369334,-1.177763,44003,Ancenis-Saint-Géréon,Ancenis-Saint-Géréon (44150),admin:fr:44003,44150
16,stop_area:SNCF:87172858,Anchamps,Europe/Paris,Anchamps (Anchamps),49.930745,4.670243,08011,Anchamps,Anchamps (08500),admin:fr:08011,08500
17,stop_area:SNCF:87575332,Anché - Voulon,Europe/Paris,Anché - Voulon (Anché),46.349675,0.250357,86003,Anché,Anché (86700),admin:fr:86003,86700
18,stop_area:SNCF:87192419,Ancy-sur-Moselle,Europe/Paris,Ancy-sur-Moselle (Ancy-Dornot),49.057714,6.062342,57021,Ancy-Dornot,Ancy-Dornot (57130),admin:fr:57021,57130
19,stop_area:SNCF:87715102,Andelot,Europe/Paris,Andelot (Andelot-en-Montagne),46.859428,5.923677,39009,Andelot-en-Montagne,Andelot-en-Montagne (39110),admin:fr:39009,39110
20,stop_area:SNCF:87611517,Andorre-l'Hospitalet,Europe/Paris,Andorre-l'Hospitalet (L'Hospitalet-près-l'Andorre),42.589453,1.800264,09139,L'Hospitalet-près-l'Andorre,L'Hospitalet-près-l'Andorre (09390),admin:fr:09139,09390
21,stop_area:SNCF:87381491,Andrésy,Europe/Paris,Andrésy (Andrésy),48.9747,2.04928,78015,Andrésy,Andrésy (78570),admin:fr:78015,78570
22,stop_area:SNCF:87726406,Andrézieux,Europe/Paris,Andrézieux (Andrézieux-Bouthéon),45.521736,4.255418,42005,Andrézieux-Bouthéon,Andrézieux-Bouthéon (42160),admin:fr:42005,42160
23,stop_area:SNCF:87484048,Angers Maître École,Europe/Paris,Angers Maître École (Angers),47.466953,-0.532437,49007,Angers,Angers (49000-49100),admin:fr:49007,49000;49100
24,stop_area:SNCF:87484006,Angers Saint-Laud,Europe/Paris,Angers Saint-Laud (Angers),47.464649,-0.55677,49007,Angers,Angers (49000-49100),admin:fr:49007,49000;49100
0,stop_area:SNCF:87543090,Angerville,Europe/Paris,Angerville (Angerville),48.311632,2.003526,91016,Angerville,Angerville (91670),admin:fr:91016,91670
1,stop_area:SNCF:87583005,Angoulême,Europe/Paris,Angoulême (Angoulême),45.653572,0.164608,16015,Angoulême,Angoulême (16000),admin:fr:16015,16000
2,stop_area:SNCF:87485102,Angoulins sur Mer,Europe/Paris,Angoulins sur Mer (Angoulins),46.107785,-1.115622,17010,Angoulins,Angoulins (17690),admin:fr:17010,17690
3,stop_area:SNCF:87296566,Anizy - Pinon,Europe/Paris,Anizy - Pinon (Pinon),49.49615,3.448575,02602,Pinon,Pinon (02320),admin:fr:02602,02320
4,stop_area:SNCF:87286856,Annappes,Europe/Paris,Annappes (Villeneuve-d'Ascq),50.622807,3.14629,59009,Villeneuve-d'Ascq,Villeneuve-d'Ascq (59491-59650),admin:fr:59009,59491;59650
5,stop_area:SNCF:87746008,Annecy,Europe/Paris,Annecy (Annecy),45.902047,6.121826,74010,Annecy,Annecy (74000-74960),admin:fr:74010,74000;74960
6,stop_area:SNCF:87745497,Annemasse,Europe/Paris,Annemasse (Annemasse),46.199245,6.236431,74012,Annemasse,Annemasse (74100),admin:fr:74012,74100
7,stop_area:SNCF:87365155,Annonay Boutique SNCF,Europe/Paris,Annonay Boutique SNCF (Annonay),45.246458,4.675772,07010,Annonay,Annonay (07100),admin:fr:07010,07100
8,stop_area:SNCF:87761270,Annonay-Gare Routière,Europe/Paris,Annonay-Gare Routière (Annonay),45.24373,4.66863,07010,Annonay,Annonay (07100),admin:fr:07010,07100
9,stop_area:SNCF:87295055,Anor,Europe/Paris,Anor (Anor),49.985022,4.093473,59012,Anor,Anor (59186),admin:fr:59012,59186
10,stop_area:SNCF:87721324,Anse,Europe/Paris,Anse (Anse),45.939351,4.719824,69009,Anse,Anse (69480),admin:fr:69009,69480
11,stop_area:SNCF:87697011,Anse (Monument),Europe/Paris,Anse (Monument) (Anse),45.936999,4.718314,69009,Anse,Anse (69480),admin:fr:69009,69480
12,stop_area:SNCF:87757567,Anthéor - Cap Roux,Europe/Paris,Anthéor - Cap Roux (Saint-Raphaël),43.434985,6.892186,83118,Saint-Raphaël,Saint-Raphaël (83530-83700),admin:fr:83118,83530;83700
13,stop_area:SNCF:87757674,Antibes,Europe/Paris,Antibes (Antibes),43.585971,7.119913,06004,Antibes,Antibes (06160-06600),admin:fr:06004,06160;06600
14,stop_area:SNCF:87611715,Antignac Village,Europe/Paris,Antignac Village (Antignac),42.825917,0.6000180000000001,31010,Antignac,Antignac (31110),admin:fr:31010,31110
15,stop_area:SNCF:87758755,Antony,Europe/Paris,Antony (Antony),48.754675,2.300973,92002,Antony,Antony (92160),admin:fr:92002,92160
16,stop_area:SNCF:88210060,Antwerpen-Centraal,Europe/Paris,Antwerpen-Centraal (Antwerpen),51.216,4.421,,Antwerpen,Antwerpen,admin:osm:relation:59518,
17,stop_area:SNCF:87317255,Anvin,Europe/Paris,Anvin (Anvin),50.446779,2.255089,62036,Anvin,Anvin (62134),admin:fr:62036,62134
18,stop_area:SNCF:87191387,Anzeling,Europe/Paris,Anzeling (Anzeling),49.262072,6.460265,57025,Anzeling,Anzeling (57320),admin:fr:57025,57320
19,stop_area:SNCF:87405571,Anzeling Carrefour,Europe/Paris,Anzeling Carrefour (Anzeling),49.26394,6.463126,57025,Anzeling,Anzeling (57320),admin:fr:57025,57320
20,stop_area:SNCF:87761791,Aouste-sur-Sye,Europe/Paris,Aouste-sur-Sye (Aouste-sur-Sye),44.716785,5.057115,26011,Aouste-sur-Sye,Aouste-sur-Sye (26400),admin:fr:26011,26400
21,stop_area:SNCF:87191643,Apach,Europe/Paris,Apach (Apach),49.458963,6.372365,57026,Apach,Apach (57480),admin:fr:57026,57480
22,stop_area:SNCF:87635854,Apach Église,Europe/Paris,Apach Église (Apach),49.459995,6.374717,57026,Apach,Apach (57480),admin:fr:57026,57480
23,stop_area:SNCF:80142893,Appenweier,Europe/Paris,Appenweier (Appenweier),48.5419,7.9735,,Appenweier,Appenweier,admin:osm:relation:452982,
24,stop_area:SNCF:87296459,Appilly,Europe/Paris,Appilly (Appilly),49.580466,3.120772,60021,Appilly,Appilly (60400),admin:fr:60021,60400
0,stop_area:SNCF:87582726,Arbanats,Europe/Paris,Arbanats (Arbanats),44.674373,-0.39551,33007,Arbanats,Arbanats (33640),admin:fr:33007,33640
1,stop_area:SNCF:87718155,Arbois,Europe/Paris,Arbois (Arbois),46.912467,5.764837,39013,Arbois,Arbois (39600),admin:fr:39013,39600
2,stop_area:SNCF:87704320,Arboretum T4,Europe/Paris,Arboretum T4 (Montfermeil),48.897839,2.561449,93047,Montfermeil,Montfermeil (93370),admin:fr:93047,93370
3,stop_area:SNCF:87718841,Arc et Senans,Europe/Paris,Arc et Senans (Arc-et-Senans),47.030473,5.77683,25021,Arc-et-Senans,Arc-et-Senans (25610),admin:fr:25021,25610
4,stop_area:SNCF:87582668,Arcachon,Europe/Paris,Arcachon (Arcachon),44.658967,-1.165323,33009,Arcachon,Arcachon (33120),admin:fr:33009,33120
5,stop_area:SNCF:87144410,Arches,Europe/Paris,Arches (Arches),48.118896,6.528105,88011,Arches,Arches (88380),admin:fr:88011,88380
6,stop_area:SNCF:87747196,Arcis-sur-Aube Rue de Châlons,Europe/Paris,Arcis-sur-Aube Rue de Châlons (Arcis-sur-Aube),48.5376,4.1418,10006,Arcis-sur-Aube,Arcis-sur-Aube (10700),admin:fr:10006,10700
7,stop_area:SNCF:87758672,Arcueil - Cachan,Europe/Paris,Arcueil - Cachan (Cachan),48.798451,2.327964,94016,Cachan,Cachan (94230),admin:fr:94016,94230
8,stop_area:SNCF:87683680,Arcy-sur-Cure,Europe/Paris,Arcy-sur-Cure (Arcy-sur-Cure),47.600873,3.766638,89015,Arcy-sur-Cure,Arcy-sur-Cure (89270),admin:fr:89015,89270
9,stop_area:SNCF:87580340,Arenc - Euroméditerranée,Europe/Paris,Arenc - Euroméditerranée (Marseille),43.312247,5.36801,13055,Marseille,Marseille (13000),admin:fr:13055,13000
10,stop_area:SNCF:87671479,Arengosse,Europe/Paris,Arengosse (Arengosse),44.007044,-0.809053,40006,Arengosse,Arengosse (40110),admin:fr:40006,40110
11,stop_area:SNCF:87784231,Argelès-sur-Mer,Europe/Paris,Argelès-sur-Mer (Argelès-sur-Mer),42.543908,3.021919,66008,Argelès-sur-Mer,Argelès-sur-Mer (66700),admin:fr:66008,66700
12,stop_area:SNCF:87314526,Argent-sur-Sauldre,Europe/Paris,Argent-sur-Sauldre (Argent-sur-Sauldre),47.560036,2.447838,18011,Argent-sur-Sauldre,Argent-sur-Sauldre (18410),admin:fr:18011,18410
13,stop_area:SNCF:87444539,Argentan,Europe/Paris,Argentan (Argentan),48.738545,-0.025291,61006,Argentan,Argentan (61200),admin:fr:61006,61200
14,stop_area:SNCF:87381848,Argenteuil,Europe/Paris,Argenteuil (Argenteuil),48.94686,2.25727,95018,Argenteuil,Argenteuil (95100),admin:fr:95018,95100
15,stop_area:SNCF:87746859,Argentière,Europe/Paris,Argentière (Chamonix-Mont-Blanc),45.981944,6.926484,74056,Chamonix-Mont-Blanc,Chamonix-Mont-Blanc (74400),admin:fr:74056,74400
16,stop_area:SNCF:87741272,Argentine,Europe/Paris,Argentine (Argentine),45.493232,6.313534,73019,Argentine,Argentine (73220),admin:fr:73019,73220
17,stop_area:SNCF:87697151,Argentine - Gemilly ou Stade,Europe/Paris,Argentine - Gemilly ou Stade (Argentine),45.493131,6.313834,73019,Argentine,Argentine (73220),admin:fr:73019,73220
18,stop_area:SNCF:87697144,Argentine La Combe,Europe/Paris,Argentine La Combe (Argentine),45.502072,6.318651,73019,Argentine,Argentine (73220),admin:fr:73019,73220
19,stop_area:SNCF:87597120,Argenton-sur-Creuse,Europe/Paris,Argenton-sur-Creuse (Argenton-sur-Creuse),46.59225,1.518256,36006,Argenton-sur-Creuse,Argenton-sur-Creuse (36200),admin:fr:36006,36200
20,stop_area:SNCF:87201566,Argenton-sur-Creuse - LEP Chateauneuf,Europe/Paris,Argenton-sur-Creuse - LEP Chateauneuf (Argenton-sur-Creuse),46.589025,1.51901,36006,Argenton-sur-Creuse,Argenton-sur-Creuse (36200),admin:fr:36006,36200
21,stop_area:SNCF:87753657,Arles,Europe/Paris,Arles (Arles),43.684863,4.632105,13004,Arles,Arles (13104-13280),admin:fr:13004,13104;13280
22,stop_area:SNCF:87345421,Arleux,Europe/Paris,Arleux (Arleux),50.286347,3.120522,59015,Arleux,Arleux (59151),admin:fr:59015,59151
23,stop_area:SNCF:87286146,Armentières,Europe/Paris,Armentières (Armentières),50.680848,2.87768,59017,Armentières,Armentières (59280),admin:fr:59017,59280
24,stop_area:SNCF:87396549,Arnage,Europe/Paris,Arnage (Arnage),47.928541,0.189882,72008,Arnage,Arnage (72230),admin:fr:72008,72230
0,stop_area:SNCF:87360339,Arnage rue du Port,Europe/Paris,Arnage rue du Port (Arnage),47.93151,0.186725,72008,Arnage,Arnage (72230),admin:fr:72008,72230
1,stop_area:SNCF:87737759,Arnas Avé Maria,Europe/Paris,Arnas Avé Maria (Arnas),46.021111,4.720277,69013,Arnas,Arnas (69400),admin:fr:69013,69400
2,stop_area:SNCF:87281121,Arnèke,Europe/Paris,Arnèke (Arnèke),50.831509,2.408468,59018,Arnèke,Arnèke (59285),admin:fr:59018,59285
3,stop_area:SNCF:87545467,Arpajon,Europe/Paris,Arpajon (Arpajon),48.586196,2.240986,91021,Arpajon,Arpajon (91290),admin:fr:91021,91290
4,stop_area:SNCF:87192153,Arraincourt Rue Principale,Europe/Paris,Arraincourt Rue Principale (Arraincourt),48.970807,6.532016,57027,Arraincourt,Arraincourt (57380),admin:fr:57027,57380
5,stop_area:SNCF:87342014,Arras,Europe/Paris,Arras (Arras),50.286971,2.781314,62041,Arras,Arras (62000),admin:fr:62041,62000
6,stop_area:SNCF:87407502,Arrest Usine Melius,Europe/Paris,Arrest Usine Melius (Sainte-Florine),45.396438,3.326379,43185,Sainte-Florine,Sainte-Florine (43250),admin:fr:43185,43250
7,stop_area:SNCF:87394486,Arrou,Europe/Paris,Arrou (Commune nouvelle d'Arrou),48.099883,1.128151,28012,Commune nouvelle d'Arrou,Commune nouvelle d'Arrou (28220-28290),admin:fr:28012,28220;28290
8,stop_area:SNCF:87643957,Arrou Place de l'église,Europe/Paris,Arrou Place de l'église (Commune nouvelle d'Arrou),48.098011,1.122978,28012,Commune nouvelle d'Arrou,Commune nouvelle d'Arrou (28220-28290),admin:fr:28012,28220;28290
9,stop_area:SNCF:87192401,Ars-sur-Moselle,Europe/Paris,Ars-sur-Moselle (Ars-sur-Moselle),49.074475,6.077646,57032,Ars-sur-Moselle,Ars-sur-Moselle (57130),admin:fr:57032,57130
10,stop_area:SNCF:87714378,Ars-sur-Moselle arrêt TIM République,Europe/Paris,Ars-sur-Moselle arrêt TIM République (Ars-sur-Moselle),49.075907,6.076677,57032,Ars-sur-Moselle,Ars-sur-Moselle (57130),admin:fr:57032,57130
11,stop_area:SNCF:87215707,Arsonval,Europe/Paris,Arsonval (Arsonval),48.268071,4.64892,10012,Arsonval,Arsonval (10200),admin:fr:10012,10200
12,stop_area:SNCF:87543058,Artenay,Europe/Paris,Artenay (Artenay),48.081057,1.883226,45008,Artenay,Artenay (45410),admin:fr:45008,45410
13,stop_area:SNCF:87672212,Artix,Europe/Paris,Artix (Artix),43.393195,-0.570082,64061,Artix,Artix (64170),admin:fr:64061,64170
14,stop_area:SNCF:87734251,Arvant,Europe/Paris,Arvant (Bournoncle-Saint-Pierre),45.365459,3.310554,43038,Bournoncle-Saint-Pierre,Bournoncle-Saint-Pierre (43360),admin:fr:43038,43360
15,stop_area:SNCF:87702126,Arzon Le Crouesty,Europe/Paris,Arzon Le Crouesty (Arzon),47.545435,-2.889465,56005,Arzon,Arzon (56640),admin:fr:56005,56640
16,stop_area:SNCF:87286864,Ascq,Europe/Paris,Ascq (Villeneuve-d'Ascq),50.621804,3.159905,59009,Villeneuve-d'Ascq,Villeneuve-d'Ascq (59491-59650),admin:fr:59009,59491;59650
17,stop_area:SNCF:87381137,Asnières-sur-Seine,Europe/Paris,Asnières-sur-Seine (Asnières-sur-Seine),48.905803,2.283295,92004,Asnières-sur-Seine,Asnières-sur-Seine (92600),admin:fr:92004,92600
18,stop_area:SNCF:87763250,Aspres-sur-Buëch,Europe/Paris,Aspres-sur-Buëch (Aspres-sur-Buëch),44.519423,5.754559,05010,Aspres-sur-Buëch,Aspres-sur-Buëch (05140),admin:fr:05010,05140
19,stop_area:SNCF:87672162,Assat,Europe/Paris,Assat (Assat),43.254399,-0.295018,64067,Assat,Assat (64510),admin:fr:64067,64510
20,stop_area:SNCF:87613075,Assier,Europe/Paris,Assier (Assier),44.67468,1.869757,46009,Assier,Assier (46320),admin:fr:46009,46320
21,stop_area:SNCF:87586321,Astaffort,Europe/Paris,Astaffort (Astaffort),44.066944,0.651155,47015,Astaffort,Astaffort (47220),admin:fr:47015,47220
22,stop_area:SNCF:87545251,Athis-Mons,Europe/Paris,Athis-Mons (Athis-Mons),48.712851,2.40312,91027,Athis-Mons,Athis-Mons (91200),admin:fr:91027,91200
23,stop_area:SNCF:87414615,Atrium,Europe/Paris,Atrium (Chaville),48.809936,2.190101,92022,Chaville,Chaville (92370),admin:fr:92022,92370
24,stop_area:SNCF:87751750,Aubagne,Europe/Paris,Aubagne (Aubagne),43.296073,5.566322,13005,Aubagne,Aubagne (13400),admin:fr:13005,13400
0,stop_area:SNCF:87594465,Aubazines - Saint-Hilaire,Europe/Paris,Aubazines - Saint-Hilaire (Saint-Hilaire-Peyroux),45.181678,1.641235,19211,Saint-Hilaire-Peyroux,Saint-Hilaire-Peyroux (19560),admin:fr:19211,19560
1,stop_area:SNCF:87192104,Aubecourt Rue Principale,Europe/Paris,Aubecourt Rue Principale (Rémilly),48.995574,6.42892,57572,Rémilly,Rémilly (57580),admin:fr:57572,57580
2,stop_area:SNCF:87535096,Aubenas Gare Routière,Europe/Paris,Aubenas Gare Routière (Aubenas),44.61095,4.407164,07019,Aubenas,Aubenas (07200),admin:fr:07019,07200
3,stop_area:SNCF:87337089,Aubenas Place de la Paix,Europe/Paris,Aubenas Place de la Paix (Aubenas),44.618129,4.38922,07019,Aubenas,Aubenas (07200),admin:fr:07019,07200
4,stop_area:SNCF:87758599,Auber,Europe/Paris,Auber (Paris),48.871956,2.330432,75056,Paris,Paris (75000-75116),admin:fr:75056,75000;75116
5,stop_area:SNCF:87386730,Aubergenville Élisabethville,Europe/Paris,Aubergenville Élisabethville (Aubergenville),48.971923,1.848479,78029,Aubergenville,Aubergenville (78410),admin:fr:78029,78410
6,stop_area:SNCF:87734111,Aubiat,Europe/Paris,Aubiat (Aubiat),45.983827,3.160514,63013,Aubiat,Aubiat (63260),admin:fr:63013,63260
7,stop_area:SNCF:87491233,Aubie - Saint-Antoine,Europe/Paris,Aubie - Saint-Antoine (Val de Virvée),45.015215,-0.419878,33018,Val de Virvée,Val de Virvée (33240),admin:fr:33018,33240
8,stop_area:SNCF:87611764,Aubiet,Europe/Paris,Aubiet (Aubiet),43.650192,0.789173,32012,Aubiet,Aubiet (32270),admin:fr:32012,32270
9,stop_area:SNCF:87396572,Aubigné-Racan,Europe/Paris,Aubigné-Racan (Aubigné-Racan),47.687014,0.265866,72013,Aubigné-Racan,Aubigné-Racan (72800),admin:fr:72013,72800
10,stop_area:SNCF:87345447,Aubigny-au-Bac,Europe/Paris,Aubigny-au-Bac (Aubigny-au-Bac),50.268551,3.158781,59026,Aubigny-au-Bac,Aubigny-au-Bac (59265),admin:fr:59026,59265
11,stop_area:SNCF:87342246,Aubigny-en-Artois,Europe/Paris,Aubigny-en-Artois (Aubigny-en-Artois),50.3529,2.592519,62045,Aubigny-en-Artois,Aubigny-en-Artois (62690),admin:fr:62045,62690
12,stop_area:SNCF:87314518,Aubigny-sur-Nère,Europe/Paris,Aubigny-sur-Nère (Aubigny-sur-Nère),47.487747,2.43731,18015,Aubigny-sur-Nère,Aubigny-sur-Nère (18700),admin:fr:18015,18700
13,stop_area:SNCF:87613224,Aubin,Europe/Paris,Aubin (Aubin),44.527276,2.239313,12013,Aubin,Aubin (12110),admin:fr:12013,12110
14,stop_area:SNCF:87316604,Aubin-Saint-Vaast,Europe/Paris,Aubin-Saint-Vaast (Aubin-Saint-Vaast),50.394755,1.970029,62046,Aubin-Saint-Vaast,Aubin-Saint-Vaast (62140),admin:fr:62046,62140
15,stop_area:SNCF:87191684,Auboué,Europe/Paris,Auboué (Auboué),49.216036,5.971139,54028,Auboué,Auboué (54580),admin:fr:54028,54580
16,stop_area:SNCF:87172122,Aubrives,Europe/Paris,Aubrives (Aubrives),50.104041,4.761433,08028,Aubrives,Aubrives (08320),admin:fr:08028,08320
17,stop_area:SNCF:87597823,Aubusson,Europe/Paris,Aubusson (Aubusson),45.959735,2.161759,23008,Aubusson,Aubusson (23200),admin:fr:23008,23200
18,stop_area:SNCF:87611749,Auch,Europe/Paris,Auch (Auch),43.647488,0.596661,32013,Auch,Auch (32000),admin:fr:32013,32000
19,stop_area:SNCF:87134387,Auch - Le Seilhan,Europe/Paris,Auch - Le Seilhan (Auch),43.657504,0.5974699999999999,32013,Auch,Auch (32000),admin:fr:32013,32000
20,stop_area:SNCF:87668459,Auch Allée Baylac,Europe/Paris,Auch Allée Baylac (Auch),43.648288,0.582806,32013,Auch,Auch (32000),admin:fr:32013,32000
21,stop_area:SNCF:87317230,Auchy-lès-Hesdin,Europe/Paris,Auchy-lès-Hesdin (Auchy-lès-Hesdin),50.396249,2.102353,62050,Auchy-lès-Hesdin,Auchy-lès-Hesdin (62770),admin:fr:62050,62770
22,stop_area:SNCF:87444059,Audrieu,Europe/Paris,Audrieu (Audrieu),49.216132,-0.596014,14026,Audrieu,Audrieu (14250),admin:fr:14026,14250
23,stop_area:SNCF:87281428,Audruicq,Europe/Paris,Audruicq (Audruicq),50.875668,2.07633,62057,Audruicq,Audruicq (62370),admin:fr:62057,62370
24,stop_area:SNCF:87194357,Audun-le-Roman,Europe/Paris,Audun-le-Roman (Audun-le-Roman),49.36682,5.89139,54029,Audun-le-Roman,Audun-le-Roman (54560),admin:fr:54029,54560
0,stop_area:SNCF:87415158,Auffay,Europe/Paris,Auffay (Val-de-Scie),49.716091,1.098424,76034,Val-de-Scie,Val-de-Scie (76720-76850),admin:fr:76034,76720;76850
1,stop_area:SNCF:80021402,Augsburg Hauptbahnhof,Europe/Paris,Augsburg Hauptbahnhof (Augsburg),48.3654,10.886,,Augsburg,Augsburg,admin:osm:relation:62407,
2,stop_area:SNCF:87562421,Aulnat - Aéroport,Europe/Paris,Aulnat - Aéroport (Aulnat),45.791865,3.161442,63019,Aulnat,Aulnat (63510),admin:fr:63019,63510
3,stop_area:SNCF:87271411,Aulnay-sous-Bois,Europe/Paris,Aulnay-sous-Bois (Aulnay-sous-Bois),48.931869,2.494379,93005,Aulnay-sous-Bois,Aulnay-sous-Bois (93600),admin:fr:93005,93600
4,stop_area:SNCF:87295600,Aulnoye-Aymeries,Europe/Paris,Aulnoye-Aymeries (Aulnoye-Aymeries),50.197477,3.843333,59033,Aulnoye-Aymeries,Aulnoye-Aymeries (59620),admin:fr:59033,59620
5,stop_area:SNCF:87313767,Aumale,Europe/Paris,Aumale (Aumale),49.765115,1.756069,76035,Aumale,Aumale (76390),admin:fr:76035,76390
6,stop_area:SNCF:87783266,Aumont-Aubrac,Europe/Paris,Aumont-Aubrac (Peyre en Aubrac),44.718235,3.283582,48009,Peyre en Aubrac,Peyre en Aubrac (48130),admin:fr:48009,48130
7,stop_area:SNCF:87545657,Auneau,Europe/Paris,Auneau (Roinville),48.446017,1.779882,28317,Roinville,Roinville (28700),admin:fr:28317,28700
8,stop_area:SNCF:87476200,Auray,Europe/Paris,Auray (Auray),47.680085,-2.999363,56007,Auray,Auray (56400),admin:fr:56007,56400
9,stop_area:SNCF:87726760,Aurec,Europe/Paris,Aurec (Aurec-sur-Loire),45.37118,4.198432,43012,Aurec-sur-Loire,Aurec-sur-Loire (43110),admin:fr:43012,43110
10,stop_area:SNCF:87645002,Aurillac,Europe/Paris,Aurillac (Aurillac),44.921041,2.435583,15014,Aurillac,Aurillac (15000),admin:fr:15014,15000
11,stop_area:SNCF:87611384,Auterive,Europe/Paris,Auterive (Auterive),43.348993,1.468831,31033,Auterive,Auterive (31190),admin:fr:31033,31190
12,stop_area:SNCF:87117457,Autreville Centre,Europe/Paris,Autreville Centre (Autreville),48.484054,5.849088,88020,Autreville,Autreville (88300),admin:fr:88020,88300
13,stop_area:SNCF:87694570,Autun,Europe/Paris,Autun (Autun),46.954943,4.293095,71014,Autun,Autun (71400),admin:fr:71014,71400
14,stop_area:SNCF:87276543,Auvers-sur-Oise,Europe/Paris,Auvers-sur-Oise (Auvers-sur-Oise),49.070629,2.175285,95039,Auvers-sur-Oise,Auvers-sur-Oise (95430),admin:fr:95039,95430
15,stop_area:SNCF:87683573,Auxerre-Saint-Gervais,Europe/Paris,Auxerre-Saint-Gervais (Auxerre),47.797645,3.58514,89024,Auxerre,Auxerre (89000-89290),admin:fr:89024,89000;89290
16,stop_area:SNCF:87117119,Auxon Église,Europe/Paris,Auxon Église (Auxon),48.103036,3.918348,10018,Auxon,Auxon (10130),admin:fr:10018,10130
17,stop_area:SNCF:87429761,Auxon Route Nationale,Europe/Paris,Auxon Route Nationale (Auxon),48.109256,3.915937,10018,Auxon,Auxon (10130),admin:fr:10018,10130
18,stop_area:SNCF:87713347,Auxonne,Europe/Paris,Auxonne (Tillenay),47.192668,5.377356,21639,Tillenay,Tillenay (21130),admin:fr:21639,21130
19,stop_area:SNCF:87304691,Avail,Europe/Paris,Avail (Issoudun),46.96407,2.058472,36088,Issoudun,Issoudun (36100),admin:fr:36088,36100
20,stop_area:SNCF:87683789,Avallon,Europe/Paris,Avallon (Avallon),47.495755,3.912446,89025,Avallon,Avallon (89200),admin:fr:89025,89200
21,stop_area:SNCF:87171579,Avenay,Europe/Paris,Avenay (Avenay-Val-d'Or),49.064783,4.043689,51028,Avenay-Val-d'Or,Avenay-Val-d'Or (51160),admin:fr:51028,51160
22,stop_area:SNCF:87543207,Avenue du Président Kennedy - Maison de Radio France,Europe/Paris,Avenue du Président Kennedy - Maison de Radio France (Paris),48.852985,2.280314,75056,Paris,Paris (75000-75116),admin:fr:75056,75000;75116
23,stop_area:SNCF:87381038,Avenue Foch,Europe/Paris,Avenue Foch (Paris),48.870971,2.275617,75056,Paris,Paris (75000-75116),admin:fr:75056,75000;75116
24,stop_area:SNCF:87381046,Avenue Henri Martin,Europe/Paris,Avenue Henri Martin (Paris),48.864408,2.272238,75056,Paris,Paris (75000-75116),admin:fr:75056,75000;75116
0,stop_area:SNCF:87295725,Avesnelles,Europe/Paris,Avesnelles (Avesnelles),50.118497,3.948638,59035,Avesnelles,Avesnelles (59440),admin:fr:59035,59440
1,stop_area:SNCF:87295733,Avesnes-sur-Helpe,Europe/Paris,Avesnes-sur-Helpe (Avesnes-sur-Helpe),50.126755,3.932902,59036,Avesnes-sur-Helpe,Avesnes-sur-Helpe (59440),admin:fr:59036,59440
2,stop_area:SNCF:87765008,Avignon Centre,Europe/Paris,Avignon Centre (Avignon),43.941923,4.805269,84007,Avignon,Avignon (84000-84140),admin:fr:84007,84000;84140
3,stop_area:SNCF:87318964,Avignon TGV,Europe/Paris,Avignon TGV (Avignon),43.92194,4.786136,84007,Avignon,Avignon (84000-84140),admin:fr:84007,84000;84140
4,stop_area:SNCF:87616011,Avignonet,Europe/Paris,Avignonet (Avignonet-Lauragais),43.363877,1.787269,31037,Avignonet-Lauragais,Avignonet-Lauragais (31290),admin:fr:31037,31290
5,stop_area:SNCF:87342584,Avion,Europe/Paris,Avion (Avion),50.40721,2.83363,62065,Avion,Avion (62210),admin:fr:62065,62210
6,stop_area:SNCF:87576439,Avord,Europe/Paris,Avord (Avord),47.034874,2.652335,18018,Avord,Avord (18520),admin:fr:18018,18520
7,stop_area:SNCF:87718551,Avoudrey,Europe/Paris,Avoudrey (Avoudrey),47.129852,6.43481,25039,Avoudrey,Avoudrey (25690),admin:fr:25039,25690
8,stop_area:SNCF:87448514,Avranches,Europe/Paris,Avranches (Avranches),48.690041,-1.369612,50025,Avranches,Avranches (50300),admin:fr:50025,50300
9,stop_area:SNCF:87313296,Avrechy,Europe/Paris,Avrechy (Avrechy),49.444637,2.418194,60034,Avrechy,Avrechy (60130),admin:fr:60034,60130
10,stop_area:SNCF:87691725,Avrée,Europe/Paris,Avrée (Avrée),46.82338,3.880148,58019,Avrée,Avrée (58170),admin:fr:58019,58170
11,stop_area:SNCF:87215111,Avricourt Nouvel Avricourt,Europe/Paris,Avricourt Nouvel Avricourt (Avricourt),48.651707,6.821681,57042,Avricourt,Avricourt (57810),admin:fr:57042,57810
12,stop_area:SNCF:87407056,Avricourt Rue de Lorraine,Europe/Paris,Avricourt Rue de Lorraine (Avricourt),48.650089,6.812851,57042,Avricourt,Avricourt (57810),admin:fr:57042,57810
13,stop_area:SNCF:87407049,Avricourt Rue Des Halles,Europe/Paris,Avricourt Rue Des Halles (Avricourt),48.650559,6.806194,57042,Avricourt,Avricourt (57810),admin:fr:57042,57810
14,stop_area:SNCF:87611533,Ax-les-Thermes,Europe/Paris,Ax-les-Thermes (Ax-les-Thermes),42.724841,1.833295,09032,Ax-les-Thermes,Ax-les-Thermes (09110),admin:fr:09032,09110
15,stop_area:SNCF:87171561,Aÿ-Champagne,Europe/Paris,Aÿ-Champagne (Aÿ-Champagne),49.048797,4.00169,51030,Aÿ-Champagne,Aÿ-Champagne (51150-51160),admin:fr:51030,51150;51160
16,stop_area:SNCF:87437806,Aytré Plage,Europe/Paris,Aytré Plage (Aytré),46.12761,-1.128293,17028,Aytré,Aytré (17440),admin:fr:17028,17440
17,stop_area:SNCF:87571638,Azay-le-Rideau,Europe/Paris,Azay-le-Rideau (Azay-le-Rideau),47.266154,0.4476,37014,Azay-le-Rideau,Azay-le-Rideau (37190),admin:fr:37014,37190
18,stop_area:SNCF:87110296,Azay-le-Rideau Mairie,Europe/Paris,Azay-le-Rideau Mairie (Azay-le-Rideau),47.262332,0.466138,37014,Azay-le-Rideau,Azay-le-Rideau (37190),admin:fr:37014,37190
19,stop_area:SNCF:87574442,Azay-sur-Cher,Europe/Paris,Azay-sur-Cher (Montlouis-sur-Loire),47.365235,0.859876,37156,Montlouis-sur-Loire,Montlouis-sur-Loire (37270),admin:fr:37156,37270
20,stop_area:SNCF:87115337,Azay-sur-Indre Le Paradis,Europe/Paris,Azay-sur-Indre Le Paradis (Azay-sur-Indre),47.214671,0.940779,37016,Azay-sur-Indre,Azay-sur-Indre (37310),admin:fr:37016,37310
21,stop_area:SNCF:87644039,Azay-sur-Indre Les 2 Rivières,Europe/Paris,Azay-sur-Indre Les 2 Rivières (Azay-sur-Indre),47.209256,0.9460769999999999,37016,Azay-sur-Indre,Azay-sur-Indre (37310),admin:fr:37016,37310
22,stop_area:SNCF:87141408,Azerailles,Europe/Paris,Azerailles (Azerailles),48.491252,6.696164,54038,Azerailles,Azerailles (54122),admin:fr:54038,54122
23,stop_area:SNCF:87590349,Babinière,Europe/Paris,Babinière (La Chapelle-sur-Erdre),47.258856,-1.545084,44035,La Chapelle-sur-Erdre,La Chapelle-sur-Erdre (44240),admin:fr:44035,44240
24,stop_area:SNCF:87141416,Baccarat,Europe/Paris,Baccarat (Baccarat),48.452092,6.743921,54039,Baccarat,Baccarat (54120),admin:fr:54039,54120
0,stop_area:SNCF:87170068,Bachos Anos,Europe/Paris,Bachos Anos (Bachos),42.897857,0.625231,31040,Bachos,Bachos (31440),admin:fr:31040,31440
1,stop_area:SNCF:80142778,Baden Baden,Europe/Paris,Baden Baden (Baden-Baden),48.7903,8.190899999999999,,Baden-Baden,Baden-Baden,admin:osm:relation:62340,
2,stop_area:SNCF:87170357,Bagiry Cimetiére,Europe/Paris,Bagiry Cimetiére (Bagiry),42.976236,0.625889,31041,Bagiry,Bagiry (31510),admin:fr:31041,31510
3,stop_area:SNCF:87618702,Bagiry Pont de Galié,Europe/Paris,Bagiry Pont de Galié (Bagiry),42.990028,0.624982,31041,Bagiry,Bagiry (31510),admin:fr:31041,31510
4,stop_area:SNCF:87613604,Bagnac,Europe/Paris,Bagnac (Bagnac-sur-Célé),44.665276,2.160192,46015,Bagnac-sur-Célé,Bagnac-sur-Célé (46270),admin:fr:46015,46270
5,stop_area:SNCF:87684191,Bagneaux-sur-Loing,Europe/Paris,Bagneaux-sur-Loing (Bagneaux-sur-Loing),48.230508,2.703366,77016,Bagneaux-sur-Loing,Bagneaux-sur-Loing (77167),admin:fr:77016,77167
6,stop_area:SNCF:87611236,Bagnères-de-Luchon,Europe/Paris,Bagnères-de-Luchon (Bagnères-de-Luchon),42.797352,0.596313,31042,Bagnères-de-Luchon,Bagnères-de-Luchon (31110),admin:fr:31042,31110
7,stop_area:SNCF:87695015,Bagnères-de-Luchon Lycée,Europe/Paris,Bagnères-de-Luchon Lycée (Bagnères-de-Luchon),42.791496,0.597762,31042,Bagnères-de-Luchon,Bagnères-de-Luchon (31110),admin:fr:31042,31110
8,stop_area:SNCF:87758680,Bagneux,Europe/Paris,Bagneux (Cachan),48.793228,2.321012,94016,Cachan,Cachan (94230),admin:fr:94016,94230
9,stop_area:SNCF:87783647,Bagnols - Chadenet,Europe/Paris,Bagnols - Chadenet (Chadenet),44.528613,3.628178,48037,Chadenet,Chadenet (48190),admin:fr:48037,48190
10,stop_area:SNCF:87764571,Bagnols-sur-Cèze,Europe/Paris,Bagnols-sur-Cèze (Bagnols-sur-Cèze),44.161604,4.626982,30028,Bagnols-sur-Cèze,Bagnols-sur-Cèze (30200),admin:fr:30028,30200
11,stop_area:SNCF:87773457,Baillargues,Europe/Paris,Baillargues (Baillargues),43.653323,4.007159,34022,Baillargues,Baillargues (34670),admin:fr:34022,34670
12,stop_area:SNCF:87394411,Bailleau-le-Pin,Europe/Paris,Bailleau-le-Pin (Bailleau-le-Pin),48.366928,1.325333,28021,Bailleau-le-Pin,Bailleau-le-Pin (28120),admin:fr:28021,28120
13,stop_area:SNCF:87286179,Bailleul,Europe/Paris,Bailleul (Bailleul),50.729167,2.734485,59043,Bailleul,Bailleul (59270),admin:fr:59043,59270
14,stop_area:SNCF:87342592,Bailleul-Sir-Berthoult,Europe/Paris,Bailleul-Sir-Berthoult (Bailleul-Sir-Berthoult),50.335379,2.841149,62073,Bailleul-Sir-Berthoult,Bailleul-Sir-Berthoult (62580),admin:fr:62073,62580
15,stop_area:SNCF:87710780,Bailly T13,Europe/Paris,Bailly T13 (Bailly),48.837372,2.074181,78043,Bailly,Bailly (78870),admin:fr:78043,78870
16,stop_area:SNCF:87144147,Bains-les-Bains,Europe/Paris,Bains-les-Bains (Le Clerjus),47.981216,6.295263,88108,Le Clerjus,Le Clerjus (88240),admin:fr:88108,88240
17,stop_area:SNCF:87286872,Baisieux,Europe/Paris,Baisieux (Baisieux),50.618307,3.23487,59044,Baisieux,Baisieux (59780),admin:fr:59044,59780
18,stop_area:SNCF:87313569,Balagny Saint-Épin,Europe/Paris,Balagny Saint-Épin (Balagny-sur-Thérain),49.294332,2.343907,60044,Balagny-sur-Thérain,Balagny-sur-Thérain (60250),admin:fr:60044,60250
19,stop_area:SNCF:87414706,Balard,Europe/Paris,Balard (Paris),48.836811,2.278751,75056,Paris,Paris (75000-75116),admin:fr:75056,75000;75116
20,stop_area:SNCF:87420828,Balazuc RD579,Europe/Paris,Balazuc RD579 (Balazuc),44.502509,4.386705,07023,Balazuc,Balazuc (07120),admin:fr:07023,07120
21,stop_area:SNCF:87726869,Balbigny,Europe/Paris,Balbigny (Balbigny),45.817868,4.187427,42011,Balbigny,Balbigny (42510),admin:fr:42011,42510
22,stop_area:SNCF:87698399,Balbigny - Gare Routière,Europe/Paris,Balbigny - Gare Routière (Balbigny),45.818022,4.187175,42011,Balbigny,Balbigny (42510),admin:fr:42011,42510
23,stop_area:SNCF:85000109,Bâle - SBB,Europe/Paris,Bâle - SBB (Basel),47.5474,7.58956,,Basel,Basel,admin:osm:relation:1683619,
24,stop_area:SNCF:87187930,Bâle Saint-Jean,Europe/Paris,Bâle Saint-Jean (Basel),47.57031,7.572745,,Basel,Basel,admin:osm:relation:1683619,
0,stop_area:SNCF:87571604,Ballan,Europe/Paris,Ballan (Ballan-Miré),47.336747,0.617807,37018,Ballan-Miré,Ballan-Miré (37510),admin:fr:37018,37510
1,stop_area:SNCF:87681437,Ballancourt,Europe/Paris,Ballancourt (Ballancourt-sur-Essonne),48.532114,2.371274,91045,Ballancourt-sur-Essonne,Ballancourt-sur-Essonne (91610),admin:fr:91045,91610
2,stop_area:SNCF:87111864,Balsièges - Bourg,Europe/Paris,Balsièges - Bourg (Balsièges),44.482212,3.456598,48016,Balsièges,Balsièges (48000),admin:fr:48016,48000
3,stop_area:SNCF:87640656,Balsièges - R.N. 88,Europe/Paris,Balsièges - R.N. 88 (Balsièges),44.482325,3.456205,48016,Balsièges,Balsièges (48000),admin:fr:48016,48000
4,stop_area:SNCF:87783324,Banassac - La Canourgue,Europe/Paris,Banassac - La Canourgue (Banassac-Canilhac),44.447763,3.195852,48017,Banassac-Canilhac,Banassac-Canilhac (48500),admin:fr:48017,48500
5,stop_area:SNCF:87755223,Bandol,Europe/Paris,Bandol (Bandol),43.140385,5.750128,83009,Bandol,Bandol (83150),admin:fr:83009,83150
6,stop_area:SNCF:87474189,Bannalec,Europe/Paris,Bannalec (Bannalec),47.926867,-3.706417,29004,Bannalec,Bannalec (29380),admin:fr:29004,29380
7,stop_area:SNCF:87314906,Bannay Bourg,Europe/Paris,Bannay Bourg (Bannay),47.386964,2.885861,18020,Bannay,Bannay (18300),admin:fr:18020,18300
8,stop_area:SNCF:87643890,Bannay les Hautes de Bussy,Europe/Paris,Bannay les Hautes de Bussy (Bannay),47.386664,2.88571,18020,Bannay,Bannay (18300),admin:fr:18020,18300
9,stop_area:SNCF:87213298,Bannstein Croisement,Europe/Paris,Bannstein Croisement (Éguelshardt),49.005201,7.502456,57188,Éguelshardt,Éguelshardt (57230),admin:fr:57188,57230
10,stop_area:SNCF:87182840,Bantzenheim,Europe/Paris,Bantzenheim (Bantzenheim),47.811132,7.503976,68020,Bantzenheim,Bantzenheim (68490),admin:fr:68020,68490
11,stop_area:SNCF:87784298,Banyuls-sur-Mer,Europe/Paris,Banyuls-sur-Mer (Banyuls-sur-Mer),42.482958,3.12505,66016,Banyuls-sur-Mer,Banyuls-sur-Mer (66650),admin:fr:66016,66650
12,stop_area:SNCF:87175042,Bar-le-Duc,Europe/Paris,Bar-le-Duc (Bar-le-Duc),48.773598,5.167053,55029,Bar-le-Duc,Bar-le-Duc (55000),admin:fr:55029,55000
13,stop_area:SNCF:87118299,Bar-sur-Aube,Europe/Paris,Bar-sur-Aube (Bar-sur-Aube),48.238559,4.706872,10033,Bar-sur-Aube,Bar-sur-Aube (10200),admin:fr:10033,10200
14,stop_area:SNCF:87727909,Bar-sur-Aube Collège,Europe/Paris,Bar-sur-Aube Collège (Bar-sur-Aube),48.227346,4.704348,10033,Bar-sur-Aube,Bar-sur-Aube (10200),admin:fr:10033,10200
15,stop_area:SNCF:87215608,Bar-sur-Aube Hôpital,Europe/Paris,Bar-sur-Aube Hôpital (Bar-sur-Aube),48.230899,4.715139,10033,Bar-sur-Aube,Bar-sur-Aube (10200),admin:fr:10033,10200
16,stop_area:SNCF:87398735,Bar-sur-Aube Hôtel de Ville,Europe/Paris,Bar-sur-Aube Hôtel de Ville (Bar-sur-Aube),48.233353,4.706421,10033,Bar-sur-Aube,Bar-sur-Aube (10200),admin:fr:10033,10200
17,stop_area:SNCF:87732222,Bar-sur-Aube Lycée,Europe/Paris,Bar-sur-Aube Lycée (Bar-sur-Aube),48.226706,4.700115,10033,Bar-sur-Aube,Bar-sur-Aube (10200),admin:fr:10033,10200
18,stop_area:SNCF:87215616,Bar-sur-Aube Piscine,Europe/Paris,Bar-sur-Aube Piscine (Bar-sur-Aube),48.241253,4.696597,10033,Bar-sur-Aube,Bar-sur-Aube (10200),admin:fr:10033,10200
19,stop_area:SNCF:87615757,Baraqueville Carcenac Peyralès,Europe/Paris,Baraqueville Carcenac Peyralès (Baraqueville),44.270512,2.4274,12056,Baraqueville,Baraqueville (12160),admin:fr:12056,12160
20,stop_area:SNCF:87462911,Barbâtre - Rond-Point de Gois,Europe/Paris,Barbâtre - Rond-Point de Gois (Barbâtre),46.908976,-2.159106,85011,Barbâtre,Barbâtre (85630),admin:fr:85011,85630
21,stop_area:SNCF:87139527,Barberey-Saint-Sulpice Centre Commercial,Europe/Paris,Barberey-Saint-Sulpice Centre Commercial (Barberey-Saint-Sulpice),48.334086,4.023592,10030,Barberey-Saint-Sulpice,Barberey-Saint-Sulpice (10600),admin:fr:10030,10600
22,stop_area:SNCF:87139535,Barberey-Saint-Sulpice Route d,Europe/Paris,Barberey-Saint-Sulpice Route d (Barberey-Saint-Sulpice),48.338838,4.030786,10030,Barberey-Saint-Sulpice,Barberey-Saint-Sulpice (10600),admin:fr:10030,10600
23,stop_area:SNCF:71718010,Barcelona Sants,Europe/Paris,Barcelona Sants (Barcelona),41.378961,2.139834,,Barcelona,Barcelona (08001),admin:osm:relation:347950,08001
24,stop_area:SNCF:87411264,Barentin,Europe/Paris,Barentin (Barentin),49.549123,0.9535169999999999,76057,Barentin,Barentin (76360),admin:fr:76057,76360
0,stop_area:SNCF:87732941,Barentin Hôpital,Europe/Paris,Barentin Hôpital (Barentin),49.54213,0.954512,76057,Barentin,Barentin (76360),admin:fr:76057,76360
1,stop_area:SNCF:87732933,Barentin Rue Locke,Europe/Paris,Barentin Rue Locke (Barentin),49.547076,0.957979,76057,Barentin,Barentin (76360),admin:fr:76057,76360
2,stop_area:SNCF:87297291,Barenton-Bugny,Europe/Paris,Barenton-Bugny (Barenton-Bugny),49.630696,3.655698,02046,Barenton-Bugny,Barenton-Bugny (02000),admin:fr:02046,02000
3,stop_area:SNCF:87141754,Barisey-la-Côte Gare,Europe/Paris,Barisey-la-Côte Gare (Barisey-au-Plain),48.535008,5.83992,54046,Barisey-au-Plain,Barisey-au-Plain (54170),admin:fr:54046,54170
4,stop_area:SNCF:87405712,Barisey-la-Côte Mairie,Europe/Paris,Barisey-la-Côte Mairie (Barisey-la-Côte),48.544182,5.842809,54047,Barisey-la-Côte,Barisey-la-Côte (54170),admin:fr:54047,54170
5,stop_area:SNCF:87783563,Barjac,Europe/Paris,Barjac (Barjac),44.499264,3.410979,48018,Barjac,Barjac (48000),admin:fr:48018,48000
6,stop_area:SNCF:87192658,Baroncourt,Europe/Paris,Baroncourt (Dommary-Baroncourt),49.284534,5.699708,55158,Dommary-Baroncourt,Dommary-Baroncourt (55240),admin:fr:55158,55240
7,stop_area:SNCF:87193110,Baronville Mairie,Europe/Paris,Baronville Mairie (Baronville),48.934734,6.60836,57051,Baronville,Baronville (57340),admin:fr:57051,57340
8,stop_area:SNCF:87214247,Barr,Europe/Paris,Barr (Barr),48.40348,7.456713,67021,Barr,Barr (67140),admin:fr:67021,67140
9,stop_area:SNCF:87582759,Barsac,Europe/Paris,Barsac (Barsac),44.605431,-0.321578,33030,Barsac,Barsac (33720),admin:fr:33030,33720
10,stop_area:SNCF:87182113,Bartenheim,Europe/Paris,Bartenheim (Bartenheim),47.634931,7.487256,68021,Bartenheim,Bartenheim (68870),admin:fr:68021,68870
11,stop_area:SNCF:87659870,Bartenheim Pharmacie,Europe/Paris,Bartenheim Pharmacie (Bartenheim),47.635011,7.476127,68021,Bartenheim,Bartenheim (68870),admin:fr:68021,68870
12,stop_area:SNCF:87726778,Bas - Monistrol,Europe/Paris,Bas - Monistrol (Bas-en-Basset),45.297683,4.139678,43020,Bas-en-Basset,Bas-en-Basset (43210),admin:fr:43020,43210
13,stop_area:SNCF:87184200,Bas Évette,Europe/Paris,Bas Évette (Évette-Salbert),47.681084,6.806922,90042,Évette-Salbert,Évette-Salbert (90350),admin:fr:90042,90350
14,stop_area:SNCF:82007187,Bascharage-Sanem,Europe/Paris,Bascharage-Sanem (Käerjeng),49.5585,5.9249,,Käerjeng,Käerjeng,admin:osm:relation:407885,
15,stop_area:SNCF:87699223,Base Aérienne,Europe/Paris,Base Aérienne (Gièvres),47.320149,1.681294,41097,Gièvres,Gièvres (41130),admin:fr:41097,41130
16,stop_area:SNCF:87191601,Basse-Ham,Europe/Paris,Basse-Ham (Basse-Ham),49.380546,6.234873,57287,Basse-Ham,Basse-Ham (57970),admin:fr:57287,57970
17,stop_area:SNCF:87703769,Basse-Ham Stade,Europe/Paris,Basse-Ham Stade (Basse-Ham),49.380894,6.234288,57287,Basse-Ham,Basse-Ham (57970),admin:fr:57287,57970
18,stop_area:SNCF:85001222,Bassecourt,Europe/Paris,Bassecourt (Haute-Sorne),47.33668,7.24685,,Haute-Sorne,Haute-Sorne (2863),admin:osm:relation:2759181,2863
19,stop_area:SNCF:87581850,Bassens,Europe/Paris,Bassens (Bassens),44.901307,-0.522282,33032,Bassens,Bassens (33530),admin:fr:33032,33530
20,stop_area:SNCF:87215293,Bassing Croisement,Europe/Paris,Bassing Croisement (Bassing),48.867778,6.801111,57053,Bassing,Bassing (57260),admin:fr:57053,57260
21,stop_area:SNCF:87481770,Batz-sur-Mer,Europe/Paris,Batz-sur-Mer (Batz-sur-Mer),47.280855,-2.478869,44010,Batz-sur-Mer,Batz-sur-Mer (44740),admin:fr:44010,44740
22,stop_area:SNCF:87192245,Baudrecourt Centre,Europe/Paris,Baudrecourt Centre (Baudrecourt),48.961219,6.451845,57054,Baudrecourt,Baudrecourt (57580),admin:fr:57054,57580
23,stop_area:SNCF:87487835,Baugé,Europe/Paris,Baugé (Baugé-en-Anjou),47.541229,-0.103675,49018,Baugé-en-Anjou,Baugé-en-Anjou (49150),admin:fr:49018,49150
24,stop_area:SNCF:87574152,Baule,Europe/Paris,Baule (Baule),47.811886,1.668274,45024,Baule,Baule (45130),admin:fr:45024,45130
0,stop_area:SNCF:87718460,Baume-les-Dames,Europe/Paris,Baume-les-Dames (Baume-les-Dames),47.353972,6.359649,25047,Baume-les-Dames,Baume-les-Dames (25110),admin:fr:25047,25110
1,stop_area:SNCF:87345280,Bauvin - Provin,Europe/Paris,Bauvin - Provin (Bauvin),50.511557,2.90543,59052,Bauvin,Bauvin (59221),admin:fr:59052,59221
2,stop_area:SNCF:87578229,Bayard-Route-Eurville,Europe/Paris,Bayard-Route-Eurville (Bayard-sur-Marne),48.553813,5.076853,52265,Bayard-sur-Marne,Bayard-sur-Marne (52170),admin:fr:52265,52170
3,stop_area:SNCF:87279901,Bayel Église,Europe/Paris,Bayel Église (Bayel),48.198906,4.776143,10035,Bayel,Bayel (10310),admin:fr:10035,10310
4,stop_area:SNCF:87732297,Bayel Place du Général de Gaulle,Europe/Paris,Bayel Place du Général de Gaulle (Bayel),48.196753,4.77545,10035,Bayel,Bayel (10310),admin:fr:10035,10310
5,stop_area:SNCF:87444067,Bayeux,Europe/Paris,Bayeux (Bayeux),49.269729,-0.6981000000000001,14047,Bayeux,Bayeux (14400),admin:fr:14047,14400
6,stop_area:SNCF:87141218,Bayon,Europe/Paris,Bayon (Virecourt),48.468045,6.32286,54585,Virecourt,Virecourt (54290),admin:fr:54585,54290
7,stop_area:SNCF:87673004,Bayonne,Europe/Paris,Bayonne (Bayonne),43.496793,-1.470368,64102,Bayonne,Bayonne (64100),admin:fr:64102,64100
8,stop_area:SNCF:87171462,Bazancourt,Europe/Paris,Bazancourt (Bazancourt),49.361095,4.174135,51043,Bazancourt,Bazancourt (51110),admin:fr:51043,51110
9,stop_area:SNCF:87172312,Bazeilles,Europe/Paris,Bazeilles (Bazeilles),49.675894,4.981865,08053,Bazeilles,Bazeilles (08140),admin:fr:08053,08140
10,stop_area:SNCF:87611723,Baziège,Europe/Paris,Baziège (Baziège),43.453608,1.620698,31048,Baziège,Baziège (31450),admin:fr:31048,31450
11,stop_area:SNCF:87696468,Béard,Europe/Paris,Béard (Béard),46.865293,3.318075,58025,Béard,Béard (58160),admin:fr:58025,58160
12,stop_area:SNCF:87533547,Béard - Bourg,Europe/Paris,Béard - Bourg (Béard),46.863155,3.326727,58025,Béard,Béard (58160),admin:fr:58025,58160
13,stop_area:SNCF:87317610,Beau Marais,Europe/Paris,Beau Marais (Calais),50.945387,1.898108,62193,Calais,Calais (62100),admin:fr:62193,62100
14,stop_area:SNCF:87775023,Beaucaire,Europe/Paris,Beaucaire (Beaucaire),43.80209,4.647087,30032,Beaucaire,Beaucaire (30300),admin:fr:30032,30300
15,stop_area:SNCF:87761528,Beauchastel-centre,Europe/Paris,Beauchastel-centre (Beauchastel),44.825498,4.801353,07027,Beauchastel,Beauchastel (07800),admin:fr:07027,07800
16,stop_area:SNCF:87574160,Beaugency,Europe/Paris,Beaugency (Beaugency),47.778404,1.625944,45028,Beaugency,Beaugency (45190),admin:fr:45028,45190
17,stop_area:SNCF:87756379,Beaulieu-sur-Mer,Europe/Paris,Beaulieu-sur-Mer (Beaulieu-sur-Mer),43.706692,7.331631,06011,Beaulieu-sur-Mer,Beaulieu-sur-Mer (06310),admin:fr:06011,06310
18,stop_area:SNCF:87753079,Beaumont de Lomagne College Despeyrous,Europe/Paris,Beaumont de Lomagne College Despeyrous (Beaumont-de-Lomagne),43.885182,0.988668,82013,Beaumont-de-Lomagne,Beaumont-de-Lomagne (82500),admin:fr:82013,82500
19,stop_area:SNCF:87753087,Beaumont de Lomagne Place Jean Moulin,Europe/Paris,Beaumont de Lomagne Place Jean Moulin (Beaumont-de-Lomagne),43.882346,0.984017,82013,Beaumont-de-Lomagne,Beaumont-de-Lomagne (82500),admin:fr:82013,82500
20,stop_area:SNCF:87753095,Beaumont-de-Lomagne L.e.p,Europe/Paris,Beaumont-de-Lomagne L.e.p (Beaumont-de-Lomagne),43.876909,0.978298,82013,Beaumont-de-Lomagne,Beaumont-de-Lomagne (82500),admin:fr:82013,82500
21,stop_area:SNCF:87387183,Beaumont-le-Roger,Europe/Paris,Beaumont-le-Roger (Beaumont-le-Roger),49.0742,0.772699,27051,Beaumont-le-Roger,Beaumont-le-Roger (27170),admin:fr:27051,27170
22,stop_area:SNCF:87713545,Beaune,Europe/Paris,Beaune (Beaune),47.023014,4.848423,21054,Beaune,Beaune (21200),admin:fr:21054,21200
23,stop_area:SNCF:87317198,Beaurainville,Europe/Paris,Beaurainville (Beaurainville),50.422895,1.895193,62100,Beaurainville,Beaurainville (62990),admin:fr:62100,62990
24,stop_area:SNCF:87582700,Beautiran,Europe/Paris,Beautiran (Beautiran),44.701059,-0.450174,33037,Beautiran,Beautiran (33640),admin:fr:33037,33640
0,stop_area:SNCF:87313510,Beauvais,Europe/Paris,Beauvais (Beauvais),49.426522,2.088609,60057,Beauvais,Beauvais (60000),admin:fr:60057,60000
1,stop_area:SNCF:87769612,Beauvallon,Europe/Paris,Beauvallon (Beauvallon),44.858303,4.900911,26042,Beauvallon,Beauvallon (26800),admin:fr:26042,26800
2,stop_area:SNCF:87320739,Beauvoir-sur-Mer,Europe/Paris,Beauvoir-sur-Mer (Beauvoir-sur-Mer),46.917354,-2.046084,85018,Beauvoir-sur-Mer,Beauvoir-sur-Mer (85230),admin:fr:85018,85230
3,stop_area:SNCF:87485342,Beauvoir-sur-Niort,Europe/Paris,Beauvoir-sur-Niort (Beauvoir-sur-Niort),46.17687,-0.468873,79031,Beauvoir-sur-Niort,Beauvoir-sur-Niort (79360),admin:fr:79031,79360
4,stop_area:SNCF:87775809,Beauvoisin,Europe/Paris,Beauvoisin (Beauvoisin),43.724503,4.321218,30033,Beauvoisin,Beauvoisin (30640),admin:fr:30033,30640
5,stop_area:SNCF:87726794,Beauzac,Europe/Paris,Beauzac (Beauzac),45.258168,4.099086,43025,Beauzac,Beauzac (43590),admin:fr:43025,43590
6,stop_area:SNCF:87117697,Bébing Route Nationale,Europe/Paris,Bébing Route Nationale (Bébing),48.711668,6.998459,57056,Bébing,Bébing (57830),admin:fr:57056,57830
7,stop_area:SNCF:87382002,Bécon les Bruyères,Europe/Paris,Bécon les Bruyères (Courbevoie),48.90587,2.268307,92026,Courbevoie,Courbevoie (92400),admin:fr:92026,92400
8,stop_area:SNCF:87781609,Bédarieux,Europe/Paris,Bédarieux (Bédarieux),43.608697,3.149569,34028,Bédarieux,Bédarieux (34600),admin:fr:34028,34600
9,stop_area:SNCF:87765198,Bédarrides,Europe/Paris,Bédarrides (Bédarrides),44.040843,4.89325,84016,Bédarrides,Bédarrides (84370),admin:fr:84016,84370
10,stop_area:SNCF:87672774,Bedous,Europe/Paris,Bedous (Bedous),42.995564,-0.603514,64104,Bedous,Bedous (64490),admin:fr:64104,64490
11,stop_area:SNCF:87581801,Bègles,Europe/Paris,Bègles (Bègles),44.799319,-0.555357,33039,Bègles,Bègles (33130),admin:fr:33039,33130
12,stop_area:SNCF:87491076,Beillant,Europe/Paris,Beillant (Saint-Sever-de-Saintonge),45.7008,-0.526508,17400,Saint-Sever-de-Saintonge,Saint-Sever-de-Saintonge (17800),admin:fr:17400,17800
13,stop_area:SNCF:87300822,Belfort - Montbéliard TGV,Europe/Paris,Belfort - Montbéliard TGV (Meroux-Moval),47.585105,6.897984,90068,Meroux-Moval,Meroux-Moval (90400),admin:fr:90068,90400
14,stop_area:SNCF:87184002,Belfort-Ville,Europe/Paris,Belfort-Ville (Belfort),47.633278,6.854053,90010,Belfort,Belfort (90000),admin:fr:90010,90000
15,stop_area:SNCF:87592485,Bellac,Europe/Paris,Bellac (Bellac),46.125255,1.046104,87011,Bellac,Bellac (87300),admin:fr:87011,87300
16,stop_area:SNCF:87473165,Belle-Isle - Bégard,Europe/Paris,Belle-Isle - Bégard (Louargat),48.593569,-3.322951,22135,Louargat,Louargat (22540),admin:fr:22135,22540
17,stop_area:SNCF:87698407,Bellegarde - Gare Routière,Europe/Paris,Bellegarde - Gare Routière (Valserhône),46.110645,5.824986,01033,Valserhône,Valserhône (01200),admin:fr:01033,01200
18,stop_area:SNCF:87745000,Bellegarde-sur-Valserine Gare,Europe/Paris,Bellegarde-sur-Valserine Gare (Valserhône),46.109425,5.823483,01033,Valserhône,Valserhône (01200),admin:fr:01033,01200
19,stop_area:SNCF:87742726,Bellegarde-sur-Valserine Lycée,Europe/Paris,Bellegarde-sur-Valserine Lycée (Valserhône),46.11534,5.815965,01033,Valserhône,Valserhône (01200),admin:fr:01033,01200
20,stop_area:SNCF:87641068,Bellenaves,Europe/Paris,Bellenaves (Bellenaves),46.199275,3.066583,03022,Bellenaves,Bellenaves (03330),admin:fr:03022,03330
21,stop_area:SNCF:87141804,Belleville,Europe/Paris,Belleville (Belleville),48.819245,6.101779,54060,Belleville,Belleville (54940),admin:fr:54060,54940
22,stop_area:SNCF:87721357,Belleville sur Saône,Europe/Paris,Belleville sur Saône (Belleville-en-Beaujolais),46.111952,4.729011,69019,Belleville-en-Beaujolais,Belleville-en-Beaujolais (69220),admin:fr:69019,69220
23,stop_area:SNCF:87486142,Belleville-Vendée,Europe/Paris,Belleville-Vendée (Bellevigny),46.788329,-1.434512,85019,Bellevigny,Bellevigny (85170),admin:fr:85019,85170
24,stop_area:SNCF:87393116,Bellevue,Europe/Paris,Bellevue (Meudon),48.819003,2.229674,92048,Meudon,Meudon (92190-92360),admin:fr:92048,92190;92360
0,stop_area:SNCF:87743526,Bellignat,Europe/Paris,Bellignat (Bellignat),46.238622,5.630407,01031,Bellignat,Bellignat (01100),admin:fr:01031,01100
1,stop_area:SNCF:87695973,Bellignat - Lycée Arbez-Carme,Europe/Paris,Bellignat - Lycée Arbez-Carme (Bellignat),46.248547,5.63221,01031,Bellignat,Bellignat (01100),admin:fr:01031,01100
2,stop_area:SNCF:87695981,Bellignat Mairie,Europe/Paris,Bellignat Mairie (Bellignat),46.24246,5.629689,01031,Bellignat,Bellignat (01100),admin:fr:01031,01100
3,stop_area:SNCF:87276550,Belloy - Saint-Martin,Europe/Paris,Belloy - Saint-Martin (Belloy-en-France),49.09807,2.36135,95056,Belloy-en-France,Belloy-en-France (95270),admin:fr:95056,95270
4,stop_area:SNCF:87595876,Belvès,Europe/Paris,Belvès (Pays de Belvès),44.777341,1.012071,24035,Pays de Belvès,Pays de Belvès (24170),admin:fr:24035,24170
5,stop_area:SNCF:87783670,Belvezet,Europe/Paris,Belvezet (Mont Lozère et Goulet),44.561778,3.751869,48027,Mont Lozère et Goulet,Mont Lozère et Goulet (48170-48250),admin:fr:48027,48170;48250
6,stop_area:SNCF:87673285,Bénesse-Maremne,Europe/Paris,Bénesse-Maremne (Bénesse-Maremne),43.6277,-1.369893,40036,Bénesse-Maremne,Bénesse-Maremne (40230),admin:fr:40036,40230
7,stop_area:SNCF:87192302,Bénestroff,Europe/Paris,Bénestroff (Bénestroff),48.906554,6.753196,57060,Bénestroff,Bénestroff (57670),admin:fr:57060,57670
8,stop_area:SNCF:87407114,Bénestroff Centre,Europe/Paris,Bénestroff Centre (Bénestroff),48.904634,6.758975,57060,Bénestroff,Bénestroff (57670),admin:fr:57060,57670
9,stop_area:SNCF:87485581,Benet Riche Bonne,Europe/Paris,Benet Riche Bonne (Benet),46.373673,-0.581999,85020,Benet,Benet (85490),admin:fr:85020,85490
10,stop_area:SNCF:87214122,Benfeld,Europe/Paris,Benfeld (Benfeld),48.374069,7.583866,67028,Benfeld,Benfeld (67230),admin:fr:67028,67230
11,stop_area:SNCF:87576447,Bengy,Europe/Paris,Bengy (Bengy-sur-Craon),47.000438,2.749149,18027,Bengy-sur-Craon,Bengy-sur-Craon (18520),admin:fr:18027,18520
12,stop_area:SNCF:87193250,Béning-lès-Saint-Avold,Europe/Paris,Béning-lès-Saint-Avold (Béning-lès-Saint-Avold),49.138056,6.82848,57061,Béning-lès-Saint-Avold,Béning-lès-Saint-Avold (57800),admin:fr:57061,57800
13,stop_area:SNCF:80191064,Berg (Pfalz),Europe/Paris,Berg (Pfalz) (Berg (Pfalz)),48.9807,8.2128,,Berg (Pfalz),Berg (Pfalz),admin:osm:relation:1250483,
14,stop_area:SNCF:87584268,Bergerac,Europe/Paris,Bergerac (Bergerac),44.857061,0.489174,24037,Bergerac,Bergerac (24100),admin:fr:24037,24100
15,stop_area:SNCF:87643460,Bergheim Porte haute,Europe/Paris,Bergheim Porte haute (Bergheim),48.205616,7.357543,68028,Bergheim,Bergheim (68750),admin:fr:68028,68750
16,stop_area:SNCF:87281105,Bergues,Europe/Paris,Bergues (Bergues),50.968997,2.425787,59067,Bergues,Bergues (59380),admin:fr:59067,59380
17,stop_area:SNCF:87342279,Berguette - Isbergues,Europe/Paris,Berguette - Isbergues (Isbergues),50.61379,2.462786,62473,Isbergues,Isbergues (62330),admin:fr:62473,62330
18,stop_area:SNCF:87295808,Berlaimont,Europe/Paris,Berlaimont (Berlaimont),50.198044,3.810429,59068,Berlaimont,Berlaimont (59145),admin:fr:59068,59145
19,stop_area:SNCF:87192187,Bermering Eglise,Europe/Paris,Bermering Eglise (Bermering),48.93136,6.71041,57065,Bermering,Bermering (57340),admin:fr:57065,57340
20,stop_area:SNCF:87444299,Bernay,Europe/Paris,Bernay (Bernay),49.087116,0.595688,27056,Bernay,Bernay (27300),admin:fr:27056,27300
21,stop_area:SNCF:87592352,Bersac,Europe/Paris,Bersac (Bersac-sur-Rivalier),46.083814,1.432128,87013,Bersac-sur-Rivalier,Bersac-sur-Rivalier (87370),admin:fr:87013,87370
22,stop_area:SNCF:87215335,Berthelming,Europe/Paris,Berthelming (Berthelming),48.81029,7.008468,57066,Berthelming,Berthelming (57930),admin:fr:57066,57930
23,stop_area:SNCF:87477562,Berthelming Mairie,Europe/Paris,Berthelming Mairie (Berthelming),48.81635,7.006759,57066,Berthelming,Berthelming (57930),admin:fr:57066,57930
24,stop_area:SNCF:87703561,Berthelming Rue Principale,Europe/Paris,Berthelming Rue Principale (Berthelming),48.818607,7.00887,57066,Berthelming,Berthelming (57930),admin:fr:57066,57930
0,stop_area:SNCF:87138883,Bertholène Café Girou,Europe/Paris,Bertholène Café Girou (Bertholène),44.392848,2.78188,12026,Bertholène,Bertholène (12310),admin:fr:12026,12310
1,stop_area:SNCF:87783753,Bertholène Centre,Europe/Paris,Bertholène Centre (Bertholène),44.393806,2.776709,12026,Bertholène,Bertholène (12310),admin:fr:12026,12310
2,stop_area:SNCF:87170555,Bertren Centre,Europe/Paris,Bertren Centre (Bertren),42.9991,0.61797,65087,Bertren,Bertren (65370),admin:fr:65087,65370
3,stop_area:SNCF:87141424,Bertrichamps,Europe/Paris,Bertrichamps (Bertrichamps),48.428401,6.791125,54065,Bertrichamps,Bertrichamps (54120),admin:fr:54065,54120
4,stop_area:SNCF:87345553,Bertry,Europe/Paris,Bertry (Bertry),50.091134,3.448857,59074,Bertry,Bertry (59980),admin:fr:59074,59980
5,stop_area:SNCF:87300863,Besançon - Franche-Comté TGV,Europe/Paris,Besançon - Franche-Comté TGV (Les Auxons),47.307215,5.953613,25035,Les Auxons,Les Auxons (25870),admin:fr:25035,25870
6,stop_area:SNCF:87718015,Besançon - Mouillère,Europe/Paris,Besançon - Mouillère (Besançon),47.240397,6.033804,25056,Besançon,Besançon (25000),admin:fr:25056,25000
7,stop_area:SNCF:87718007,Besançon-Viotte,Europe/Paris,Besançon-Viotte (Besançon),47.247049,6.021943,25056,Besançon,Besançon (25000),admin:fr:25056,25000
8,stop_area:SNCF:87471219,Beslé,Europe/Paris,Beslé (Guémené-Penfao),47.698879,-1.870637,44067,Guémené-Penfao,Guémené-Penfao (44290),admin:fr:44067,44290
9,stop_area:SNCF:87276642,Bessancourt,Europe/Paris,Bessancourt (Bessancourt),49.035784,2.209939,95060,Bessancourt,Bessancourt (95550),admin:fr:95060,95550
10,stop_area:SNCF:87696336,Bessay,Europe/Paris,Bessay (Bessay-sur-Allier),46.442973,3.360642,03025,Bessay-sur-Allier,Bessay-sur-Allier (03340),admin:fr:03025,03340
11,stop_area:SNCF:87594747,Bétaille,Europe/Paris,Bétaille (Bétaille),44.942455,1.734326,46028,Bétaille,Bétaille (46110),admin:fr:46028,46110
12,stop_area:SNCF:87342006,Béthune,Europe/Paris,Béthune (Béthune),50.521454,2.640509,62119,Béthune,Béthune (62400),admin:fr:62119,62400
13,stop_area:SNCF:87703579,Bettborn Grand Rue,Europe/Paris,Bettborn Grand Rue (Bettborn),48.801309,7.020655,57071,Bettborn,Bettborn (57930),admin:fr:57071,57930
14,stop_area:SNCF:82006030,Bettembourg,Europe/Paris,Bettembourg (Bettembourg),49.516111,6.101111,,Bettembourg,Bettembourg,admin:osm:relation:407896,
15,stop_area:SNCF:82260018,Bettembourg Gare,Europe/Paris,Bettembourg Gare (Bettembourg),49.516389,6.102222,,Bettembourg,Bettembourg,admin:osm:relation:407896,
16,stop_area:SNCF:87471045,Betton,Europe/Paris,Betton (Betton),48.18148,-1.634475,35024,Betton,Betton (35830),admin:fr:35024,35830
17,stop_area:SNCF:87343160,Beuvrages,Europe/Paris,Beuvrages (Beuvrages),50.38944,3.506007,59079,Beuvrages,Beuvrages (59192),admin:fr:59079,59192
18,stop_area:SNCF:87342402,Beuvry lès Béthune,Europe/Paris,Beuvry lès Béthune (Beuvry),50.535523,2.692329,62126,Beuvry,Beuvry (62660),admin:fr:62126,62660
19,stop_area:SNCF:85014027,Bex,Europe/Paris,Bex (Bex),46.25146,7.00067,,Bex,Bex (1880),admin:osm:relation:1684852,1880
20,stop_area:SNCF:87393363,Beynes,Europe/Paris,Beynes (Beynes),48.85936,1.87557,78062,Beynes,Beynes (78650),admin:fr:78062,78650
21,stop_area:SNCF:87723544,Beynost,Europe/Paris,Beynost (Beynost),45.833898,5.006947,01043,Beynost,Beynost (01700),admin:fr:01043,01700
22,stop_area:SNCF:87698415,Beynost - R.D. 1084 - Gare,Europe/Paris,Beynost - R.D. 1084 - Gare (Beynost),45.836729,5.005507,01043,Beynost,Beynost (01700),admin:fr:01043,01700
23,stop_area:SNCF:87781005,Béziers,Europe/Paris,Béziers (Béziers),43.336295,3.218895,34032,Béziers,Béziers (34500),admin:fr:34032,34500
24,stop_area:SNCF:87342097,Biache-Saint-Vaast,Europe/Paris,Biache-Saint-Vaast (Biache-Saint-Vaast),50.316257,2.941718,62128,Biache-Saint-Vaast,Biache-Saint-Vaast (62118),admin:fr:62128,62118
0,stop_area:SNCF:87673400,Biarritz,Europe/Paris,Biarritz (Biarritz),43.459387,-1.545937,64122,Biarritz,Biarritz (64200),admin:fr:64122,64200
1,stop_area:SNCF:87328328,Bibliothèque François Mitterrand,Europe/Paris,Bibliothèque François Mitterrand (Paris),48.82984,2.37684,75056,Paris,Paris (75000-75116),admin:fr:75056,75000;75116
2,stop_area:SNCF:87673699,Bidarray Pont Noblia,Europe/Paris,Bidarray Pont Noblia (Bidarray),43.26812,-1.345104,64124,Bidarray,Bidarray (64780),admin:fr:64124,64780
3,stop_area:SNCF:87691949,Bidos,Europe/Paris,Bidos (Bidos),43.178929,-0.606976,64126,Bidos,Bidos (64400),admin:fr:64126,64400
4,stop_area:SNCF:85043000,Biel Bienne,Europe/Paris,Biel Bienne (Biel/Bienne),47.13289,7.24292,,Biel/Bienne,Biel/Bienne,admin:osm:relation:1682380,
5,stop_area:SNCF:87402826,Bienville,Europe/Paris,Bienville (Eurville-Bienville),48.581534,5.045461,52194,Eurville-Bienville,Eurville-Bienville (52410),admin:fr:52194,52410
6,stop_area:SNCF:87393546,Bièvres,Europe/Paris,Bièvres (Bièvres),48.751276,2.2157,91064,Bièvres,Bièvres (91570),admin:fr:91064,91570
7,stop_area:SNCF:87716456,Biffontaine Mairie,Europe/Paris,Biffontaine Mairie (Biffontaine),48.211291,6.805456,88059,Biffontaine,Biffontaine (88430),admin:fr:88059,88430
8,stop_area:SNCF:87582478,Biganos Facture,Europe/Paris,Biganos Facture (Biganos),44.637384,-0.96621,33051,Biganos,Biganos (33380),admin:fr:33051,33380
9,stop_area:SNCF:87576306,Bigny,Europe/Paris,Bigny (Vallenay),46.801552,2.369954,18270,Vallenay,Vallenay (18190),admin:fr:18270,18190
10,stop_area:SNCF:87345140,Billy-Montigny,Europe/Paris,Billy-Montigny (Billy-Montigny),50.415551,2.91187,62133,Billy-Montigny,Billy-Montigny (62420),admin:fr:62133,62420
11,stop_area:SNCF:87757690,Biot,Europe/Paris,Biot (Antibes),43.610937,7.126192,06004,Antibes,Antibes (06160-06600),admin:fr:06004,06160;06600
12,stop_area:SNCF:87212308,Bischheim,Europe/Paris,Bischheim (Schiltigheim),48.611835,7.742217,67447,Schiltigheim,Schiltigheim (67300),admin:fr:67447,67300
13,stop_area:SNCF:87658930,Bischheim Arrêt CTS R. Gare,Europe/Paris,Bischheim Arrêt CTS R. Gare (Schiltigheim),48.610657,7.750844,67447,Schiltigheim,Schiltigheim (67300),admin:fr:67447,67300
14,stop_area:SNCF:87214296,Bischoffsheim,Europe/Paris,Bischoffsheim (Bischoffsheim),48.48701,7.49772,67045,Bischoffsheim,Bischoffsheim (67870),admin:fr:67045,67870
15,stop_area:SNCF:87703470,Bischtroff Mairie,Europe/Paris,Bischtroff Mairie (Sarrewerden),48.901094,7.071829,67435,Sarrewerden,Sarrewerden (67260),admin:fr:67435,67260
16,stop_area:SNCF:87213611,Bischwiller,Europe/Paris,Bischwiller (Bischwiller),48.765753,7.851654,67046,Bischwiller,Bischwiller (67240),admin:fr:67046,67240
17,stop_area:SNCF:87659805,Bischwiller Église Catholique,Europe/Paris,Bischwiller Église Catholique (Bischwiller),48.764098,7.859784,67046,Bischwiller,Bischwiller (67240),admin:fr:67046,67240
18,stop_area:SNCF:87659813,Bischwiller Vestra,Europe/Paris,Bischwiller Vestra (Bischwiller),48.770589,7.847867,67046,Bischwiller,Bischwiller (67240),admin:fr:67046,67240
19,stop_area:SNCF:87193821,Bitche Ancienne Gare,Europe/Paris,Bitche Ancienne Gare (Bitche),49.048717,7.432153,57089,Bitche,Bitche (57230),admin:fr:57089,57230
20,stop_area:SNCF:87193839,Bitche Camp,Europe/Paris,Bitche Camp (Bitche),49.04892,7.476046,57089,Bitche,Bitche (57230),admin:fr:57089,57230
21,stop_area:SNCF:87642801,Bitche Quartier Driant,Europe/Paris,Bitche Quartier Driant (Bitche),49.054942,7.456211,57089,Bitche,Bitche (57230),admin:fr:57089,57230
22,stop_area:SNCF:87406934,Bitche Rue de la Paix,Europe/Paris,Bitche Rue de la Paix (Bitche),49.048904,7.428641,57089,Bitche,Bitche (57230),admin:fr:57089,57230
23,stop_area:SNCF:87182576,Bitschwiller-lès-Thann,Europe/Paris,Bitschwiller-lès-Thann (Bitschwiller-lès-Thann),47.827372,7.078514,68040,Bitschwiller-lès-Thann,Bitschwiller-lès-Thann (68620),admin:fr:68040,68620
24,stop_area:SNCF:87659953,Bitschwiller-lès-Thann Mairie,Europe/Paris,Bitschwiller-lès-Thann Mairie (Bitschwiller-lès-Thann),47.829182,7.079737,68040,Bitschwiller-lès-Thann,Bitschwiller-lès-Thann (68620),admin:fr:68040,68620
0,stop_area:SNCF:87688499,Blacons,Europe/Paris,Blacons (Mirabel-et-Blacons),44.710424,5.090696,26183,Mirabel-et-Blacons,Mirabel-et-Blacons (26400),admin:fr:26183,26400
1,stop_area:SNCF:87172387,Blagny,Europe/Paris,Blagny (Blagny),49.62256,5.184723,08067,Blagny,Blagny (08110),admin:fr:08067,08110
2,stop_area:SNCF:87141135,Blainville - Damelevières,Europe/Paris,Blainville - Damelevières (Damelevières),48.564799,6.386948,54152,Damelevières,Damelevières (54360),admin:fr:54152,54360
3,stop_area:SNCF:87713073,Blaisy-Bas,Europe/Paris,Blaisy-Bas (Blaisy-Bas),47.373829,4.740814,21080,Blaisy-Bas,Blaisy-Bas (21540),admin:fr:21080,21540
4,stop_area:SNCF:87316034,Blangy-Glisy,Europe/Paris,Blangy-Glisy (Blangy-Tronville),49.878563,2.409431,80107,Blangy-Tronville,Blangy-Tronville (80440),admin:fr:80107,80440
5,stop_area:SNCF:87313809,Blangy-sur-Bresle,Europe/Paris,Blangy-sur-Bresle (Blangy-sur-Bresle),49.932363,1.625558,76101,Blangy-sur-Bresle,Blangy-sur-Bresle (76340),admin:fr:76101,76340
6,stop_area:SNCF:87317248,Blangy-sur-Ternoise,Europe/Paris,Blangy-sur-Ternoise (Blangy-sur-Ternoise),50.424662,2.1723,62138,Blangy-sur-Ternoise,Blangy-sur-Ternoise (62770),admin:fr:62138,62770
7,stop_area:SNCF:87581728,Blanquefort,Europe/Paris,Blanquefort (Blanquefort),44.917585,-0.6238899999999999,33056,Blanquefort,Blanquefort (33290),admin:fr:33056,33290
8,stop_area:SNCF:87694612,Blanzy,Europe/Paris,Blanzy (Blanzy),46.694064,4.391358,71040,Blanzy,Blanzy (71450),admin:fr:71040,71450
9,stop_area:SNCF:87141721,Blénod-lès-Toul Les Naux,Europe/Paris,Blénod-lès-Toul Les Naux (Blénod-lès-Toul),48.59948,5.843568,54080,Blénod-lès-Toul,Blénod-lès-Toul (54113),admin:fr:54080,54113
10,stop_area:SNCF:87574475,Bléré - la Croix,Europe/Paris,Bléré - la Croix (La Croix-en-Touraine),47.337741,0.987745,37091,La Croix-en-Touraine,La Croix-en-Touraine (37150),admin:fr:37091,37150
11,stop_area:SNCF:87574004,Blois - Chambord,Europe/Paris,Blois - Chambord (Blois),47.585449,1.323759,41018,Blois,Blois (41000),admin:fr:41018,41000
12,stop_area:SNCF:87152322,Blonville-sur-Mer,Europe/Paris,Blonville-sur-Mer (Blonville-sur-Mer),49.338611,0.027778,14079,Blonville-sur-Mer,Blonville-sur-Mer (14910),admin:fr:14079,14910
13,stop_area:SNCF:87723171,Bobigny Pablo Picasso,Europe/Paris,Bobigny Pablo Picasso (Bobigny),48.906612,2.449965,93008,Bobigny,Bobigny (93000),admin:fr:93008,93000
14,stop_area:SNCF:87582346,Boé,Europe/Paris,Boé (Boé),44.177609,0.635013,47031,Boé,Boé (47550),admin:fr:47031,47550
15,stop_area:SNCF:87726471,Boën,Europe/Paris,Boën (Boën-sur-Lignon),45.741386,4.005061,42019,Boën-sur-Lignon,Boën-sur-Lignon (42130),admin:fr:42019,42130
16,stop_area:SNCF:87172049,Bogny-sur-Meuse,Europe/Paris,Bogny-sur-Meuse (Bogny-sur-Meuse),49.858312,4.763232,08081,Bogny-sur-Meuse,Bogny-sur-Meuse (08120),admin:fr:08081,08120
17,stop_area:SNCF:87296269,Bohain,Europe/Paris,Bohain (Bohain-en-Vermandois),49.988418,3.443168,02095,Bohain-en-Vermandois,Bohain-en-Vermandois (02110),admin:fr:02095,02110
18,stop_area:SNCF:87684407,Boigneville,Europe/Paris,Boigneville (Boigneville),48.342347,2.378905,91069,Boigneville,Boigneville (91720),admin:fr:91069,91720
19,stop_area:SNCF:87409763,Bois d'Oingt,Europe/Paris,Bois d'Oingt (Val d'Oingt),45.921683,4.585309,69024,Val d'Oingt,Val d'Oingt (69620),admin:fr:69024,69620
20,stop_area:SNCF:87381079,Bois-Colombes,Europe/Paris,Bois-Colombes (Bois-Colombes),48.913535,2.272504,92009,Bois-Colombes,Bois-Colombes (92270),admin:fr:92009,92270
21,stop_area:SNCF:87721787,Bois-d'Oingt - Légny,Europe/Paris,Bois-d'Oingt - Légny (Légny),45.906545,4.57513,69111,Légny,Légny (69620),admin:fr:69111,69620
22,stop_area:SNCF:87682203,Bois-le-Roi,Europe/Paris,Bois-le-Roi (Bois-le-Roi),48.475567,2.691606,77037,Bois-le-Roi,Bois-le-Roi (77590),admin:fr:77037,77590
23,stop_area:SNCF:87342071,Boisleux,Europe/Paris,Boisleux (Boisleux-au-Mont),50.21046,2.771961,62151,Boisleux-au-Mont,Boisleux-au-Mont (62175),admin:fr:62151,62175
24,stop_area:SNCF:87543082,Boisseaux,Europe/Paris,Boisseaux (Boisseaux),48.256418,1.973296,45037,Boisseaux,Boisseaux (45480),admin:fr:45037,45480
0,stop_area:SNCF:87645184,Boisset,Europe/Paris,Boisset (Boisset),44.786038,2.249767,15021,Boisset,Boisset (15600),admin:fr:15021,15600
1,stop_area:SNCF:87682518,Boissise-le-Roi,Europe/Paris,Boissise-le-Roi (Boissise-le-Roi),48.529359,2.572925,77040,Boissise-le-Roi,Boissise-le-Roi (77310),admin:fr:77040,77310
2,stop_area:SNCF:87381152,Boissy-l'Aillerie,Europe/Paris,Boissy-l'Aillerie (Boissy-l'Aillerie),49.07598,2.02513,95078,Boissy-l'Aillerie,Boissy-l'Aillerie (95650),admin:fr:95078,95650
3,stop_area:SNCF:87758201,Boissy-Saint-Léger,Europe/Paris,Boissy-Saint-Léger (Boissy-Saint-Léger),48.753076,2.505344,94004,Boissy-Saint-Léger,Boissy-Saint-Léger (94470),admin:fr:94004,94470
4,stop_area:SNCF:87764357,Bollène - La Croisière,Europe/Paris,Bollène - La Croisière (Bollène),44.27154,4.708055,84019,Bollène,Bollène (84500),admin:fr:84019,84500
5,stop_area:SNCF:87182709,Bollwiller,Europe/Paris,Bollwiller (Bollwiller),47.856969,7.26718,68043,Bollwiller,Bollwiller (68540),admin:fr:68043,68540
6,stop_area:SNCF:87142224,Bologne,Europe/Paris,Bologne (Bologne),48.198677,5.134467,52058,Bologne,Bologne (52310),admin:fr:52058,52310
7,stop_area:SNCF:87107425,Bologne Salle des Fêtes,Europe/Paris,Bologne Salle des Fêtes (Bologne),48.199737,5.141416,52058,Bologne,Bologne (52310),admin:fr:52058,52310
8,stop_area:SNCF:87784801,Bolquère - Eyne,Europe/Paris,Bolquère - Eyne (Bolquère),42.497873,2.087559,66020,Bolquère,Bolquère (66210),admin:fr:66020,66210
9,stop_area:SNCF:85001289,Boncourt,Europe/Paris,Boncourt (Boncourt),47.49263,7.01656,,Boncourt,Boncourt (2926),admin:osm:relation:1685574,2926
10,stop_area:SNCF:87113407,Bondy,Europe/Paris,Bondy (Bondy),48.894423,2.479022,93010,Bondy,Bondy (93140),admin:fr:93010,93140
11,stop_area:SNCF:87478065,Bonnemain,Europe/Paris,Bonnemain (Bonnemain),48.476405,-1.765413,35029,Bonnemain,Bonnemain (35270),admin:fr:35029,35270
12,stop_area:SNCF:87545731,Bonneval,Europe/Paris,Bonneval (Bonneval),48.186239,1.386298,28051,Bonneval,Bonneval (28800),admin:fr:28051,28800
13,stop_area:SNCF:87715193,Bonnevaux,Europe/Paris,Bonnevaux (Bonnevaux),46.80852,6.184064,25075,Bonnevaux,Bonnevaux (25560),admin:fr:25075,25560
14,stop_area:SNCF:87746339,Bonneville,Europe/Paris,Bonneville (Bonneville),46.077752,6.416493,74042,Bonneville,Bonneville (74130),admin:fr:74042,74130
15,stop_area:SNCF:87415893,Bonnières,Europe/Paris,Bonnières (Bonnières-sur-Seine),49.038654,1.58163,78089,Bonnières-sur-Seine,Bonnières-sur-Seine (78270),admin:fr:78089,78270
16,stop_area:SNCF:87745596,Bons-en-Chablais,Europe/Paris,Bons-en-Chablais (Bons-en-Chablais),46.27011,6.36647,74043,Bons-en-Chablais,Bons-en-Chablais (74890),admin:fr:74043,74890
17,stop_area:SNCF:87726414,Bonson,Europe/Paris,Bonson (Bonson),45.522197,4.21625,42022,Bonson,Bonson (42160),admin:fr:42022,42160
18,stop_area:SNCF:87276444,Boran-sur-Oise,Europe/Paris,Boran-sur-Oise (Boran-sur-Oise),49.167135,2.362537,60086,Boran-sur-Oise,Boran-sur-Oise (60820),admin:fr:60086,60820
19,stop_area:SNCF:87581009,Bordeaux Saint-Jean,Europe/Paris,Bordeaux Saint-Jean (Bordeaux),44.825873,-0.556697,33063,Bordeaux,Bordeaux (33000-33800),admin:fr:33063,33000;33800
20,stop_area:SNCF:87491019,Bords,Europe/Paris,Bords (Bords),45.894237,-0.798115,17053,Bords,Bords (17430),admin:fr:17053,17430
21,stop_area:SNCF:87734681,Borne,Europe/Paris,Borne (Borne),45.099563,3.799295,43036,Borne,Borne (43350),admin:fr:43036,43350
22,stop_area:SNCF:87276717,Bornel - Belle-Église,Europe/Paris,Bornel - Belle-Église (Bornel),49.194621,2.207241,60088,Bornel,Bornel (60540),admin:fr:60088,60540
23,stop_area:SNCF:87645705,Bort-les-Orgues,Europe/Paris,Bort-les-Orgues (Bort-les-Orgues),45.406435,2.502565,19028,Bort-les-Orgues,Bort-les-Orgues (19110),admin:fr:19028,19110
24,stop_area:SNCF:87534099,Bort-les-Orgues Ville,Europe/Paris,Bort-les-Orgues Ville (Bort-les-Orgues),45.399341,2.499293,19028,Bort-les-Orgues,Bort-les-Orgues (19110),admin:fr:19028,19110
0,stop_area:SNCF:87215756,Bossancourt,Europe/Paris,Bossancourt (Bossancourt),48.283553,4.601296,10050,Bossancourt,Bossancourt (10140),admin:fr:10050,10140
1,stop_area:SNCF:87481200,Bouaye,Europe/Paris,Bouaye (Bouaye),47.138154,-1.681069,44018,Bouaye,Bouaye (44830),admin:fr:44018,44830
2,stop_area:SNCF:87673095,Boucau,Europe/Paris,Boucau (Boucau),43.523447,-1.490487,64140,Boucau,Boucau (64340),admin:fr:64140,64340
3,stop_area:SNCF:87345389,Bouchain,Europe/Paris,Bouchain (Bouchain),50.278151,3.33173,59092,Bouchain,Bouchain (59111),admin:fr:59092,59111
4,stop_area:SNCF:87775346,Boucoiran,Europe/Paris,Boucoiran (Boucoiran-et-Nozières),43.992694,4.187634,30046,Boucoiran-et-Nozières,Boucoiran-et-Nozières (30190),admin:fr:30046,30190
5,stop_area:SNCF:87276485,Bouffémont - Moisselles,Europe/Paris,Bouffémont - Moisselles (Bouffémont),49.045154,2.322769,95091,Bouffémont,Bouffémont (95570),admin:fr:95091,95570
6,stop_area:SNCF:87382440,Bougival,Europe/Paris,Bougival (La Celle-Saint-Cloud),48.854238,2.132286,78126,La Celle-Saint-Cloud,La Celle-Saint-Cloud (78170),admin:fr:78126,78170
7,stop_area:SNCF:87316158,Bouillancourt,Europe/Paris,Bouillancourt (Bouillancourt-la-Bataille),49.694493,2.532402,80121,Bouillancourt-la-Bataille,Bouillancourt-la-Bataille (80500),admin:fr:80121,80500
8,stop_area:SNCF:87117903,Bouilly Mairie,Europe/Paris,Bouilly Mairie (Bouilly),48.19363,3.998637,10051,Bouilly,Bouilly (10320),admin:fr:10051,10320
9,stop_area:SNCF:87320721,Bouin,Europe/Paris,Bouin (Bouin),46.973679,-1.996121,85029,Bouin,Bouin (85230),admin:fr:85029,85230
10,stop_area:SNCF:87543181,Boulainvilliers,Europe/Paris,Boulainvilliers (Paris),48.85645,2.275149,75056,Paris,Paris (75000-75116),admin:fr:75056,75000;75116
11,stop_area:SNCF:87725473,Boulazac Isle Manoire,Europe/Paris,Boulazac Isle Manoire (Boulazac Isle Manoire),45.172052,0.772787,24053,Boulazac Isle Manoire,Boulazac Isle Manoire (24330-24750),admin:fr:24053,24330;24750
12,stop_area:SNCF:87317016,Boulogne - Tintelleries,Europe/Paris,Boulogne - Tintelleries (Boulogne-sur-Mer),50.727284,1.609036,62160,Boulogne-sur-Mer,Boulogne-sur-Mer (62200),admin:fr:62160,62200
13,stop_area:SNCF:87317586,Boulogne sur Mer,Europe/Paris,Boulogne sur Mer (Boulogne-sur-Mer),50.715613,1.609714,62160,Boulogne-sur-Mer,Boulogne-sur-Mer (62200),admin:fr:62160,62200
14,stop_area:SNCF:87757534,Boulouris sur Mer,Europe/Paris,Boulouris sur Mer (Saint-Raphaël),43.416333,6.808259,83118,Saint-Raphaël,Saint-Raphaël (83530-83700),admin:fr:83118,83530;83700
15,stop_area:SNCF:87545178,Bouray,Europe/Paris,Bouray (Lardy),48.533149,2.290596,91330,Lardy,Lardy (91510),admin:fr:91330,91510
16,stop_area:SNCF:87281279,Bourbourg,Europe/Paris,Bourbourg (Bourbourg),50.952229,2.194259,59094,Bourbourg,Bourbourg (59630),admin:fr:59094,59630
17,stop_area:SNCF:87214775,Bourg-Bruche,Europe/Paris,Bourg-Bruche (Bourg-Bruche),48.359846,7.13731,67059,Bourg-Bruche,Bourg-Bruche (67420),admin:fr:67059,67420
18,stop_area:SNCF:87660886,Bourg-Bruche - Église,Europe/Paris,Bourg-Bruche - Église (Bourg-Bruche),48.359044,7.135169,67059,Bourg-Bruche,Bourg-Bruche (67420),admin:fr:67059,67420
19,stop_area:SNCF:87743005,Bourg-en-Bresse,Europe/Paris,Bourg-en-Bresse (Bourg-en-Bresse),46.200111,5.215011,01053,Bourg-en-Bresse,Bourg-en-Bresse (01000),admin:fr:01053,01000
20,stop_area:SNCF:87695999,Bourg-en-Bresse - Archives,Europe/Paris,Bourg-en-Bresse - Archives (Bourg-en-Bresse),46.195328,5.226676,01053,Bourg-en-Bresse,Bourg-en-Bresse (01000),admin:fr:01053,01000
21,stop_area:SNCF:87697672,Bourg-en-Bresse - Charité,Europe/Paris,Bourg-en-Bresse - Charité (Bourg-en-Bresse),46.207629,5.21974,01053,Bourg-en-Bresse,Bourg-en-Bresse (01000),admin:fr:01053,01000
22,stop_area:SNCF:87696013,Bourg-en-Bresse Gare Routière,Europe/Paris,Bourg-en-Bresse Gare Routière (Bourg-en-Bresse),46.199498,5.215381,01053,Bourg-en-Bresse,Bourg-en-Bresse (01000),admin:fr:01053,01000
23,stop_area:SNCF:87758698,Bourg-la-Reine,Europe/Paris,Bourg-la-Reine (Bourg-la-Reine),48.780279,2.312462,92014,Bourg-la-Reine,Bourg-la-Reine (92340),admin:fr:92014,92340
24,stop_area:SNCF:87784876,Bourg-Madame,Europe/Paris,Bourg-Madame (Bourg-Madame),42.43237,1.948595,66025,Bourg-Madame,Bourg-Madame (66760),admin:fr:66025,66760
0,stop_area:SNCF:87741793,Bourg-Saint-Maurice,Europe/Paris,Bourg-Saint-Maurice (Bourg-Saint-Maurice),45.619036,6.771273,73054,Bourg-Saint-Maurice,Bourg-Saint-Maurice (73700),admin:fr:73054,73700
1,stop_area:SNCF:87576207,Bourges,Europe/Paris,Bourges (Bourges),47.094129,2.394236,18033,Bourges,Bourges (18000),admin:fr:18033,18000
2,stop_area:SNCF:87454249,Bourges Gare Routière,Europe/Paris,Bourges Gare Routière (Bourges),47.082812,2.386895,18033,Bourges,Bourges (18000),admin:fr:18033,18000
3,stop_area:SNCF:87744995,Bourges Juranville,Europe/Paris,Bourges Juranville (Bourges),47.082885,2.38918,18033,Bourges,Bourges (18000),admin:fr:18033,18000
4,stop_area:SNCF:87481242,Bourgneuf-en-Retz,Europe/Paris,Bourgneuf-en-Retz (Villeneuve-en-Retz),47.046899,-1.955226,44021,Villeneuve-en-Retz,Villeneuve-en-Retz (44580),admin:fr:44021,44580
5,stop_area:SNCF:87335810,Bourgneuf-en-Retz - Centre-Écoles,Europe/Paris,Bourgneuf-en-Retz - Centre-Écoles (Villeneuve-en-Retz),47.031497,-1.917385,44021,Villeneuve-en-Retz,Villeneuve-en-Retz (44580),admin:fr:44021,44580
6,stop_area:SNCF:87723429,Bourgoin-Jallieu,Europe/Paris,Bourgoin-Jallieu (Bourgoin-Jallieu),45.583982,5.273362,38053,Bourgoin-Jallieu,Bourgoin-Jallieu (38300),admin:fr:38053,38300
7,stop_area:SNCF:87415323,Bourgtheroulde - Thuit-Hébert,Europe/Paris,Bourgtheroulde - Thuit-Hébert (Grand Bourgtheroulde),49.317438,0.83832,27105,Grand Bourgtheroulde,Grand Bourgtheroulde (27520),admin:fr:27105,27520
8,stop_area:SNCF:87486324,Bournezeau,Europe/Paris,Bournezeau (Bournezeau),46.651524,-1.178402,85034,Bournezeau,Bournezeau (85480),admin:fr:85034,85480
9,stop_area:SNCF:87753368,Bourret le Communal,Europe/Paris,Bourret le Communal (Bourret),43.942351,1.169709,82023,Bourret,Bourret (82700),admin:fr:82023,82700
10,stop_area:SNCF:87462820,Bourret les Gourdis,Europe/Paris,Bourret les Gourdis (Bourret),43.947149,1.150775,82023,Bourret,Bourret (82700),admin:fr:82023,82700
11,stop_area:SNCF:87684118,Bourron-Marlotte - Grez,Europe/Paris,Bourron-Marlotte - Grez (Bourron-Marlotte),48.332747,2.692198,77048,Bourron-Marlotte,Bourron-Marlotte (77780),admin:fr:77048,77780
12,stop_area:SNCF:87481176,Boussay - La Bruffière,Europe/Paris,Boussay - La Bruffière (Boussay),47.050453,-1.182615,44022,Boussay,Boussay (44190),admin:fr:44022,44190
13,stop_area:SNCF:87611095,Boussens,Europe/Paris,Boussens (Boussens),43.179617,0.972543,31084,Boussens,Boussens (31360),admin:fr:31084,31360
14,stop_area:SNCF:87682138,Boussy-Saint-Antoine,Europe/Paris,Boussy-Saint-Antoine (Boussy-Saint-Antoine),48.680893,2.532726,91097,Boussy-Saint-Antoine,Boussy-Saint-Antoine (91800),admin:fr:91097,91800
15,stop_area:SNCF:87726216,Bouthéon,Europe/Paris,Bouthéon (Andrézieux-Bouthéon),45.525002,4.278182,42005,Andrézieux-Bouthéon,Andrézieux-Bouthéon (42160),admin:fr:42005,42160
16,stop_area:SNCF:87681478,Boutigny,Europe/Paris,Boutigny (Boutigny-sur-Essonne),48.43495,2.37636,91099,Boutigny-sur-Essonne,Boutigny-sur-Essonne (91820),admin:fr:91099,91820
17,stop_area:SNCF:87659631,Bouverans - Halte Routière,Europe/Paris,Bouverans - Halte Routière (Bouverans),46.857975,6.209625,25085,Bouverans,Bouverans (25560),admin:fr:25085,25560
18,stop_area:SNCF:87642314,Bouxwiller Centre,Europe/Paris,Bouxwiller Centre (Bouxwiller),48.827393,7.483024,67061,Bouxwiller,Bouxwiller (67330),admin:fr:67061,67330
19,stop_area:SNCF:87702084,Bouxwiller Clos des Seigneurs,Europe/Paris,Bouxwiller Clos des Seigneurs (Bouxwiller),48.828192,7.486641,67061,Bouxwiller,Bouxwiller (67330),admin:fr:67061,67330
20,stop_area:SNCF:87642306,Bouxwiller Lycée Schattenmann,Europe/Paris,Bouxwiller Lycée Schattenmann (Bouxwiller),48.826399,7.478946,67061,Bouxwiller,Bouxwiller (67330),admin:fr:67061,67330
21,stop_area:SNCF:87193177,Bouzonville,Europe/Paris,Bouzonville (Bouzonville),49.289974,6.529374,57106,Bouzonville,Bouzonville (57320),admin:fr:57106,57320
22,stop_area:SNCF:87735522,Bouzonville Institut de la Providence,Europe/Paris,Bouzonville Institut de la Providence (Bouzonville),49.292247,6.531394,57106,Bouzonville,Bouzonville (57320),admin:fr:57106,57320
23,stop_area:SNCF:87406728,Bouzonville Rue d'Alzing,Europe/Paris,Bouzonville Rue d'Alzing (Bouzonville),49.289873,6.535495,57106,Bouzonville,Bouzonville (57320),admin:fr:57106,57320
24,stop_area:SNCF:87313213,Boves,Europe/Paris,Boves (Boves),49.846337,2.397793,80131,Boves,Boves (80440),admin:fr:80131,80440
0,stop_area:SNCF:87316141,Braches,Europe/Paris,Braches (Braches),49.733047,2.506964,80132,Braches,Braches (80110),admin:fr:80132,80110
1,stop_area:SNCF:87615054,Bram,Europe/Paris,Bram (Bram),43.243815,2.119325,11049,Bram,Bram (11150),admin:fr:11049,11150
2,stop_area:SNCF:87476242,Brandérion,Europe/Paris,Brandérion (Brandérion),47.782318,-3.19404,56021,Brandérion,Brandérion (56700),admin:fr:56021,56700
3,stop_area:SNCF:87574962,Bras De Fer Noctilien,Europe/Paris,Bras De Fer Noctilien (Évry-Courcouronnes),48.623416,2.450088,91228,Évry-Courcouronnes,Évry-Courcouronnes (91000-91080),admin:fr:91228,91000;91080
4,stop_area:SNCF:87734244,Brassac-les-Mines - Sainte-Florine,Europe/Paris,Brassac-les-Mines - Sainte-Florine (Brassac-les-Mines),45.414246,3.330167,63050,Brassac-les-Mines,Brassac-les-Mines (63570),admin:fr:63050,63570
5,stop_area:SNCF:87395657,Brassac-les-Mines Lycée Rabelais,Europe/Paris,Brassac-les-Mines Lycée Rabelais (Brassac-les-Mines),45.413632,3.32142,63050,Brassac-les-Mines,Brassac-les-Mines (63570),admin:fr:63050,63570
6,stop_area:SNCF:87611822,Brax - Léguevin,Europe/Paris,Brax - Léguevin (Brax),43.614887,1.236922,31088,Brax,Brax (31490),admin:fr:31088,31490
7,stop_area:SNCF:87713644,Brazey-en-Plaine,Europe/Paris,Brazey-en-Plaine (Brazey-en-Plaine),47.131491,5.21239,21103,Brazey-en-Plaine,Brazey-en-Plaine (21470),admin:fr:21103,21470
8,stop_area:SNCF:87413344,Bréauté - Beuzeville,Europe/Paris,Bréauté - Beuzeville (Bréauté),49.603396,0.417489,76141,Bréauté,Bréauté (76110),admin:fr:76141,76110
9,stop_area:SNCF:87345108,Brebières Sud,Europe/Paris,Brebières Sud (Brebières),50.336155,3.013977,62173,Brebières,Brebières (62117),admin:fr:62173,62117
10,stop_area:SNCF:87756833,Breil-sur-Roya,Europe/Paris,Breil-sur-Roya (Breil-sur-Roya),43.944057,7.516446,06023,Breil-sur-Roya,Breil-sur-Roya (06540),admin:fr:06023,06540
11,stop_area:SNCF:87182659,Breitenbach,Europe/Paris,Breitenbach (Breitenbach-Haut-Rhin),48.028533,7.104052,68051,Breitenbach-Haut-Rhin,Breitenbach-Haut-Rhin (68380),admin:fr:68051,68380
12,stop_area:SNCF:87665562,Breitenbach Restaurant Breit's bar,Europe/Paris,Breitenbach Restaurant Breit's bar (Breitenbach-Haut-Rhin),48.026744,7.098981,68051,Breitenbach-Haut-Rhin,Breitenbach-Haut-Rhin (68380),admin:fr:68051,68380
13,stop_area:SNCF:87473827,Brélidy - Plouec,Europe/Paris,Brélidy - Plouec (Plouëc-du-Trieux),48.669155,-3.196214,22212,Plouëc-du-Trieux,Plouëc-du-Trieux (22260),admin:fr:22212,22260
14,stop_area:SNCF:87487249,Bressuire,Europe/Paris,Bressuire (Bressuire),46.838403,-0.49614,79049,Bressuire,Bressuire (79300),admin:fr:79049,79300
15,stop_area:SNCF:87474007,Brest,Europe/Paris,Brest (Brest),48.38762,-4.480306,29019,Brest,Brest (29200),admin:fr:29019,29200
16,stop_area:SNCF:87471102,Breteil,Europe/Paris,Breteil (Breteil),48.140539,-1.897545,35040,Breteil,Breteil (35160),admin:fr:35040,35160
17,stop_area:SNCF:87594762,Bretenoux - Biars,Europe/Paris,Bretenoux - Biars (Biars-sur-Cère),44.927466,1.844383,46029,Biars-sur-Cère,Biars-sur-Cère (46130),admin:fr:46029,46130
18,stop_area:SNCF:87313247,Breteuil-Embranchement,Europe/Paris,Breteuil-Embranchement (Bacouël),49.626499,2.384714,60039,Bacouël,Bacouël (60120),admin:fr:60039,60120
19,stop_area:SNCF:87545194,Brétigny,Europe/Paris,Brétigny (Brétigny-sur-Orge),48.606702,2.302333,91103,Brétigny-sur-Orge,Brétigny-sur-Orge (91220),admin:fr:91103,91220
20,stop_area:SNCF:87712265,Brétigny - Norges,Europe/Paris,Brétigny - Norges (Bretigny),47.389742,5.110074,21107,Bretigny,Bretigny (21490),admin:fr:21107,21490
21,stop_area:SNCF:87394270,Bretoncelles,Europe/Paris,Bretoncelles (Bretoncelles),48.43273,0.89236,61061,Bretoncelles,Bretoncelles (61110),admin:fr:61061,61110
22,stop_area:SNCF:87444042,Bretteville - Norrey,Europe/Paris,Bretteville - Norrey (Thue et Mue),49.203411,-0.51274,14098,Thue et Mue,Thue et Mue (14210-14740),admin:fr:14098,14210;14740
23,stop_area:SNCF:87193169,Brettnach Centre,Europe/Paris,Brettnach Centre (Brettnach),49.257999,6.563805,57110,Brettnach,Brettnach (57320),admin:fr:57110,57320
24,stop_area:SNCF:87171322,Breuil - Romain,Europe/Paris,Breuil - Romain (Breuil-sur-Vesle),49.308414,3.766532,51086,Breuil-sur-Vesle,Breuil-sur-Vesle (51140),admin:fr:51086,51140
0,stop_area:SNCF:87545483,Breuillet - Bruyères-le-Châtel,Europe/Paris,Breuillet - Bruyères-le-Châtel (Breuillet),48.577225,2.191772,91105,Breuillet,Breuillet (91650),admin:fr:91105,91650
1,stop_area:SNCF:87545491,Breuillet Village,Europe/Paris,Breuillet Village (Breuillet),48.564968,2.171437,91105,Breuillet,Breuillet (91650),admin:fr:91105,91650
2,stop_area:SNCF:87381624,Bréval,Europe/Paris,Bréval (Bréval),48.94336,1.54191,78107,Bréval,Bréval (78980),admin:fr:78107,78980
3,stop_area:SNCF:87763607,Briançon,Europe/Paris,Briançon (Briançon),44.889842,6.632966,05023,Briançon,Briançon (05100),admin:fr:05023,05100
4,stop_area:SNCF:87696088,Briare,Europe/Paris,Briare (Briare),47.646363,2.733652,45053,Briare,Briare (45250),admin:fr:45053,45250
5,stop_area:SNCF:87280065,Bridoré - Carrefour 943,Europe/Paris,Bridoré - Carrefour 943 (Bridoré),47.033073,1.095583,37039,Bridoré,Bridoré (37600),admin:fr:37039,37600
6,stop_area:SNCF:87644047,Bridoré Saint Martin,Europe/Paris,Bridoré Saint Martin (Bridoré),47.026245,1.081901,37039,Bridoré,Bridoré (37600),admin:fr:37039,37600
7,stop_area:SNCF:87117994,Brienon-sur-Armançon Mairie,Europe/Paris,Brienon-sur-Armançon Mairie (Brienon-sur-Armançon),47.992025,3.617066,89055,Brienon-sur-Armançon,Brienon-sur-Armançon (89210),admin:fr:89055,89210
8,stop_area:SNCF:87592063,Brignac,Europe/Paris,Brignac (Royères),45.863905,1.440351,87129,Royères,Royères (87400),admin:fr:87129,87400
9,stop_area:SNCF:87722728,Brignais,Europe/Paris,Brignais (Brignais),45.673538,4.76352,69027,Brignais,Brignais (69530),admin:fr:69027,69530
10,stop_area:SNCF:87747451,Brignoud,Europe/Paris,Brignoud (Villard-Bonnot),45.262494,5.90145,38547,Villard-Bonnot,Villard-Bonnot (38190),admin:fr:38547,38190
11,stop_area:SNCF:87317180,Brimeux,Europe/Paris,Brimeux (Brimeux),50.446741,1.833896,62177,Brimeux,Brimeux (62170),admin:fr:62177,62170
12,stop_area:SNCF:87677047,Brion - Laisy - Mairie,Europe/Paris,Brion - Laisy - Mairie (Laizy),46.908137,4.200381,71251,Laizy,Laizy (71190),admin:fr:71251,71190
13,stop_area:SNCF:87694596,Brion - Laizy,Europe/Paris,Brion - Laizy (Brion),46.908582,4.207128,71062,Brion,Brion (71190),admin:fr:71062,71190
14,stop_area:SNCF:87131961,Brion - Montréal-la-Cluse Gare,Europe/Paris,Brion - Montréal-la-Cluse Gare (Brion),46.175774,5.558513,01063,Brion,Brion (01460),admin:fr:01063,01460
15,stop_area:SNCF:87487611,Brion-près-Thouet,Europe/Paris,Brion-près-Thouet (Brion-près-Thouet),47.048721,-0.184901,79056,Brion-près-Thouet,Brion-près-Thouet (79290),admin:fr:79056,79290
16,stop_area:SNCF:87415364,Brionne,Europe/Paris,Brionne (Brionne),49.196422,0.7117830000000001,27116,Brionne,Brionne (27800),admin:fr:27116,27800
17,stop_area:SNCF:87734269,Brioude,Europe/Paris,Brioude (Brioude),45.300561,3.37856,43040,Brioude,Brioude (43100),admin:fr:43040,43100
18,stop_area:SNCF:87407569,Brioude Lycée Lafayette,Europe/Paris,Brioude Lycée Lafayette (Brioude),45.292201,3.382566,43040,Brioude,Brioude (43100),admin:fr:43040,43100
19,stop_area:SNCF:87448084,Briouze,Europe/Paris,Briouze (Briouze),48.701862,-0.368204,61063,Briouze,Briouze (61220),admin:fr:61063,61220
20,stop_area:SNCF:87594002,Brive-la-Gaillarde,Europe/Paris,Brive-la-Gaillarde (Brive-la-Gaillarde),45.152601,1.528634,19031,Brive-la-Gaillarde,Brive-la-Gaillarde (19100),admin:fr:19031,19100
21,stop_area:SNCF:87473074,Broons,Europe/Paris,Broons (Broons),48.333398,-2.235746,22020,Broons,Broons (22250),admin:fr:22020,22250
22,stop_area:SNCF:87394452,Brou,Europe/Paris,Brou (Brou),48.215515,1.160424,28061,Brou,Brou (28160),admin:fr:28061,28160
23,stop_area:SNCF:87643981,Brou Centre,Europe/Paris,Brou Centre (Brou),48.211802,1.166294,28061,Brou,Brou (28160),admin:fr:28061,28160
24,stop_area:SNCF:87694166,Broye,Europe/Paris,Broye (Saint-Symphorien-de-Marmagne),46.862105,4.296098,71482,Saint-Symphorien-de-Marmagne,Saint-Symphorien-de-Marmagne (71710),admin:fr:71482,71710
0,stop_area:SNCF:87453381,Bruère Allichamps Mairie,Europe/Paris,Bruère Allichamps Mairie (Bruère-Allichamps),46.768411,2.433195,18038,Bruère-Allichamps,Bruère-Allichamps (18200),admin:fr:18038,18200
1,stop_area:SNCF:87581736,Bruges,Europe/Paris,Bruges (Bruges),44.887012,-0.609445,33075,Bruges,Bruges (33520),admin:fr:33075,33520
2,stop_area:SNCF:87192260,Brulange Rue de Metz,Europe/Paris,Brulange Rue de Metz (Brulange),48.9695,6.549028,57115,Brulange,Brulange (57340),admin:fr:57115,57340
3,stop_area:SNCF:87212134,Brumath,Europe/Paris,Brumath (Brumath),48.733077,7.700421,67067,Brumath,Brumath (67170),admin:fr:67067,67170
4,stop_area:SNCF:87654673,Brumath Mairie,Europe/Paris,Brumath Mairie (Brumath),48.730876,7.708523,67067,Brumath,Brumath (67170),admin:fr:67067,67170
5,stop_area:SNCF:87345439,Brunémont,Europe/Paris,Brunémont (Brunémont),50.278221,3.146038,59115,Brunémont,Brunémont (59151),admin:fr:59115,59151
6,stop_area:SNCF:87682120,Brunoy,Europe/Paris,Brunoy (Brunoy),48.699087,2.506522,91114,Brunoy,Brunoy (91800),admin:fr:91114,91800
7,stop_area:SNCF:88140010,Bruxelles-Midi - Brussel-Zuid,Europe/Paris,Bruxelles-Midi - Brussel-Zuid (Saint-Gilles - Sint-Gillis),50.836,4.336,,Saint-Gilles - Sint-Gillis,Saint-Gilles - Sint-Gillis (1060),admin:osm:relation:58248,1060
8,stop_area:SNCF:87144154,Bruyères,Europe/Paris,Bruyères (Bruyères),48.205021,6.718908,88078,Bruyères,Bruyères (88600),admin:fr:88078,88600
9,stop_area:SNCF:87276451,Bruyères-sur-Oise,Europe/Paris,Bruyères-sur-Oise (Bruyères-sur-Oise),49.15521,2.325964,95116,Bruyères-sur-Oise,Bruyères-sur-Oise (95820),admin:fr:95116,95820
10,stop_area:SNCF:87471037,Bruz,Europe/Paris,Bruz (Bruz),48.02858,-1.751587,35047,Bruz,Bruz (35170),admin:fr:35047,35170
11,stop_area:SNCF:87758326,Bry-sur-Marne,Europe/Paris,Bry-sur-Marne (Bry-sur-Marne),48.844328,2.526298,94015,Bry-sur-Marne,Bry-sur-Marne (94360),admin:fr:94015,94360
12,stop_area:SNCF:87407247,Budange Rue D'Aboncourt,Europe/Paris,Budange Rue D'Aboncourt (Hombourg-Budange),49.276705,6.344782,57331,Hombourg-Budange,Hombourg-Budange (57920),admin:fr:57331,57920
13,stop_area:SNCF:87387092,Bueil,Europe/Paris,Bueil (Bueil),48.925365,1.443436,27119,Bueil,Bueil (27730),admin:fr:27119,27730
14,stop_area:SNCF:87592162,Bugeat,Europe/Paris,Bugeat (Bugeat),45.600597,1.924815,19033,Bugeat,Bugeat (19170),admin:fr:19033,19170
15,stop_area:SNCF:87316067,Buire-sur-l'Ancre,Europe/Paris,Buire-sur-l'Ancre (Buire-sur-l'Ancre),49.964797,2.598159,80151,Buire-sur-l'Ancre,Buire-sur-l'Ancre (80300),admin:fr:80151,80300
16,stop_area:SNCF:85001446,Buix,Europe/Paris,Buix (Basse-Allaine),47.47933,7.02998,,Basse-Allaine,Basse-Allaine,admin:osm:relation:1685570,
